ID,CITY_ID,NAME_AR,NAME_EN,LATITUDE,LONGITUDE
10700001001,1,حي الإسكان,Al Iskan Dist.,28.4850348316521,36.467069242894794
10700001002,1,حي العين,Al Ain Dist.,28.3523285896799,36.48979053445965
10700001003,1,حي الشفا,Al Shifa Dist.,28.36420968749175,36.47890499313765
10700001004,1,حي الصفا,Al Safa Dist.,28.37654049199105,36.5053188554811
10700001005,1,حي الاخضر,Al Akhdar Dist.,28.36193768020425,36.5053708393863
10700001006,1,حي البوادي,Al Bawadi Dist.,28.360481761311597,36.52731400161045
10700001007,1,حي اليرموك,Al Yarmuk Dist.,28.350285985764252,36.51170435108
10700001008,1,الأحياء الجنوبية,Southern Districts,28.36669328259245,36.543349587537904
10700001009,1,حي النظيم,Al Nadheem Dist.,28.3757814682871,36.5350537639566
10700001010,1,حي غرب الخالدية,Khalidiyah West Dist.,28.3747309120082,36.55221624387035
10700001011,1,حي البساتين,Al Basatin Dist.,28.3642504485775,36.559836450489655
10700001012,1,حي الحمراء,Al Hamra Dist.,28.3640719235868,36.56965000279405
10700001013,1,البلدة القديمة,Down Town,28.38122429366195,36.5639402338721
10700001014,1,حي السعادة,Al Saadah Dist.,28.388603509451798,36.5521027291082
10700001015,1,حي سلطانة,Sultanah Dist.,28.40024856282505,36.59022496074855
10700001016,1,حي الفيصلية الجنوبية,Faisaliyah South Dist.,28.385790573413452,36.580490751065454
10700001017,1,حي الفيصلية الشمالية,Faisaliyah North Dist.,28.3975312284984,36.5625842741815
10700001018,1,حي النهضة,Al Nahdah Dist.,28.391862871632,36.5309063080441
10700001019,1,حي الروضة,Al Rawdah Dist.,28.404934806431548,36.5193024064895
10700001020,1,حي المصيف الاول,Al Masif 1 Dist.,28.447970252741648,36.5345574389727
10700001021,1,حي المروج,Al Muruj Dist.,28.428853464091247,36.5619287947173
10700001022,1,حي الريان,Al Rayan Dist.,28.463642485239248,36.5553060933467
10700001023,1,حي الورود,Al Wurud Dist.,28.413478054326752,36.578197709480946
10700001024,1,مخطط الراجحي,Al Rajhi Subdivision Plan,28.412737689576097,36.54185802077225
10700001025,1,المدينة الجامعية,University City,28.38858787265205,36.4799019207515
10700001026,1,حي الفلاح,Al Falah Dist.,28.474671739160748,36.5442116064363
10700001027,1,حي الزهراء,Al Zahra Dist.,28.3589047104382,36.552074565699996
10700001028,1,حي رايس,Rise Dist.,28.3391556557092,36.5295387215931
10700001029,1,الدوائر الحكومية و,Government Departments Area F,28.4429780306853,36.517130009081356
10700001030,1,الدوائر الحكومية ب,Government Departments Area B,28.48925875049085,36.540588516069846
10700001031,1,الدوائر الحكومية د,Government Departments Area D,28.471580899980303,36.51641751213015
10700001032,1,الدوائر الحكومية أ,Government Departments Area A,28.5096905938263,36.5213047261382
10700001033,1,حي الجامعة,Al Jamiah Dist.,28.462391546103298,36.48077472857345
10700001034,1,الدوائر الحكومية ج,Government Departments Area C,28.49164636946105,36.497066934341746
10700001035,1,الدوائر الحكومية هـ,Government Departments Area E,28.47607914586025,36.4887534792796
10700001036,1,منطقة خاصة,Private Area,28.37531192240465,36.573341794547005
10700001037,1,حي الدفاع,Al Difa Dist.,28.4244149463341,36.547060024454055
10700001038,1,منطقة الخدمات أ,Services Area A,28.5417891983801,36.6761958135703
10700001039,1,منطقة الخدمات ب,Services Area B,28.53141341986855,36.62832394813215
10700001040,1,المدينة الصناعية,Industrial City,28.4956440389436,36.63734505192295
10700001041,1,حي الندى,Al Nada Dist.,28.4435805230518,36.564845552749404
10700001042,1,حي الهجن,Al Hejin Dist.,28.4370306753161,36.9889100154894
10700001043,1,مطــار الامير سلطان بن عبدالعزيز الدولي,Prince Sultan Bin Abdulaziz International Airport,28.37138994070805,36.63295720054805
10700001044,1,حي القادسية الثاني,Al Qadisiyah 2 Dist.,28.44105201316045,36.499244286612054
10700001045,1,حى طيبة,Taibah Dist.,28.404540148118052,36.451972717492296
10700001046,1,المنطقة الصناعية,Industrial Area,28.43738795845855,36.453262409117656
10700001047,1,حي القدس,Al Quds Dist.,28.40663118515905,36.46329775126505
10700001048,1,حي التعاون,Al Taawun Dist.,28.4296287309252,36.4724779738064
10700001049,1,حي القادسية الاول,Al Qadisiyah 1 Dist.,28.42262185626365,36.510316951728896
10700001050,1,حي غرناطة,Ghirnatah Dist.,28.4142198267708,36.47176338768875
10700001051,1,حي النخيل,Al Nakheel Dist.,28.41646984662905,36.4897077886169
10700001052,1,الاستاد الرياضي,Sports Stadium,28.3972785842079,36.499055983114246
10700001053,1,حي الياسمين,Al Yasmin Dist.,28.42062951298255,36.45285501941565
10100003001,3,حي العمل,Al Amal Dist.,24.645724712571948,46.72441882159025
10100003002,3,حي النموذجية,Al Namudhajiyah Dist.,24.65718851643065,46.6936292967964
10100003003,3,حي الجرادية,Al Jarradiyah Dist.,24.61870976763095,46.69908536642325
10100003004,3,حي الصناعية,Al Sinaiyah Dist.,24.6421702483313,46.747529483787304
10100003005,3,حي منفوحة الجديدة,Manfuha Al Jadidah Dist.,24.613367917423147,46.719169473342845
10100003006,3,حي الفاخرية,Al Fakhiriyah Dist.,24.6419725861003,46.6827980076781
10100003007,3,حي الديرة,Al Dirah Dist.,24.630576806708852,46.71082736687405
10100003008,3,حي ام الحمام الشرقي,East Umm Al Hamam Dist.,24.68815764566855,46.65927163675245
10100003009,3,حي الشرفية,Al Sharafiyah Dist.,24.6603830310133,46.66868412763865
10100003010,3,حي الهدا,Al Hada Dist.,24.6639051022536,46.63556456054125
10100003011,3,حي المعذر الشمالي,North Mathar Dist.,24.69164182212665,46.666244760455456
10100003012,3,حي ام الحمام الغربي,West Umm Al Hamam Dist.,24.6894678024595,46.6434174602977
10100003013,3,حي الرحمانية,Al Rahmaniyah Dist.,24.7160903269508,46.6594190253035
10100003014,3,حي لبن,Laban Dist.,24.63045435940615,46.6072444199496
10100003015,3,حي الرفيعة,Al Rafeah Dist.,24.637832402673702,46.66037328868065
10100003016,3,حي الشهداء,Al Shohda Dist.,24.7881690960157,46.73543004522125
10100003017,3,حي الملك فهد,King Fahd Dist.,24.740613264235,46.67036736685835
10100003018,3,حي السويدي,Al Suwaidi Dist.,24.59077661054195,46.679689824376055
10100003019,3,حي الحزم,Al Hazm Dist.,24.538411276798698,46.64625189564785
10100003020,3,حي عتيقة,Utayqah Dist.,24.6016188537285,46.7074488694468
10100003021,3,حي المربع,Al Murabba Dist.,24.662884283105548,46.70701524970345
10100003022,3,حي الفلاح,Al Falah Dist.,24.79704204016805,46.709209873046746
10100003023,3,حي الندى,Al Nada Dist.,24.80584643174585,46.682976514250896
10100003024,3,حي المرسلات,Al Mursalat Dist.,24.748864589818247,46.6899002158718
10100003025,3,حي النزهة,Al Nuzha Dist.,24.7564278425737,46.70789879895695
10100003026,3,حي الورود,Al Woroud Dist.,24.7243763267533,46.67849014994795
10100003027,3,حي الملك فيصل,King Faisal Dist.,24.761686476066153,46.77467155499925
10100003028,3,المدينة الصناعية الثانية,2nd Industrial City,24.5443775469654,46.89813181872875
10100003029,3,حي العزيزية,Al Aziziyah Dist.,24.586872013821,46.77306162114865
10100003030,3,حي المنصورة,Al Mansurah Dist.,24.608133495625403,46.74685736112405
10100003031,3,حي غبيرة,Ghobairah Dist.,24.62055130575365,46.736377447628
10100003032,3,حي الفاروق,Al Farooq Dist.,24.6537671486584,46.77326113000465
10100003033,3,حي الفيصلية,Al Faisaliyah Dist.,24.634373767658303,46.78168255106115
10100003034,3,حي الخالدية,Al Khalidiyah Dist.,24.6232965573533,46.75331789066005
10100003035,3,حي الجزيرة,Al Jazeerah Dist.,24.66467216841085,46.796423922769904
10100003036,3,حي السعادة,Al Saadah Dist.,24.697591166686998,46.8366281795423
10100003037,3,حي الناصرية,Al Nasiriyah Dist.,24.6518767520938,46.680030557856554
10100003038,3,حي المناخ,Al Manakh Dist.,24.608927177462803,46.8068700126786
10100003039,3,حي الدفاع,Al Difaa Dist.,24.5860130288533,46.832414552668354
10100003040,3,حي النور,Al Noor Dist.,24.63176220409015,46.8160282096332
10100003041,3,حي الملك عبدالله,King Abdullah Dist.,24.7324342397707,46.741432744498354
10100003042,3,حي الواحة,Al Wahah Dist.,24.74045397948195,46.71445205085695
10100003043,3,حي صلاح الدين,Salahuddin Dist.,24.732783756661547,46.69701858268035
10100003044,3,حي الملك عبدالعزيز,King Abdulaziz Dist.,24.720995876817298,46.719721194187855
10100003045,3,حي الوزارات,Al Wizarat Dist.,24.679154094005447,46.71322436679225
10100003046,3,حي سكيرينة,Skirinah Dist.,24.61639665489085,46.717746054410554
10100003047,3,حي الربوة,Al Rabwah Dist.,24.693765294168898,46.75453483182145
10100003048,3,حي جرير,Jareer Dist.,24.67721581220485,46.750637200941696
10100003049,3,حي المعذر,Al Mathar Dist.,24.66604457371175,46.6687606885297
10100003050,3,حي الصالحية,Al Salhiyah Dist.,24.63436747756835,46.733994340356546
10100003051,3,حي الملز,Al Malaz Dist.,24.6643379899381,46.73535070050495
10100003052,3,حي منفوحة,Manfuhah Dist.,24.59944758669975,46.7284181784905
10100003053,3,حي عليشة,Olaishah Dist.,24.633351531077302,46.684085459225955
10100003054,3,حي النهضة,Al Nahdah Dist.,24.7605385856764,46.81577592502755
10100003055,3,حي الخليج,Al Khaleej Dist.,24.77675743365695,46.8029839182787
10100003056,3,حي الضباط,Al Dhubbat Dist.,24.6800014189446,46.7235535611358
10100003057,3,حي السويدي الغربي,West Suwaidi Dist.,24.574423148313898,46.62474040284965
10100003058,3,حي ديراب,Dirab Dist.,24.510952772912752,46.6192328391287
10100003059,3,حي احد,Ohod Dist.,24.4899208331222,46.63499879238
10100003060,3,حي نمار,Namar Dist.,24.56895068573745,46.6787083281751
10100003061,3,حي الشفا,Al Shifa Dist.,24.565087716593,46.69858224474444
10100003062,3,حي المحمدية,Al Muhammadiyah Dist.,24.732528155717603,46.64885085929215
10100003063,3,حي السليمانية,Al Sulaimaniyah Dist.,24.69839682801205,46.699995301092
10100003064,3,حي المروة,Al Marwah Dist.,24.54081913385015,46.67573975986075
10100003065,3,حي عكاظ,Okaz Dist.,24.5131843444658,46.66491746795065
10100003066,3,حي شبرا,Shubra Dist.,24.578806004331753,46.66804495997725
10100003067,3,حي الزهرة,Al Zahrah Dist.,24.5786526188313,46.64575228387435
10100003068,3,حي صياح,Siyah Dist.,24.60803368497985,46.701307946302094
10100003069,3,حي سلطانة,Sultanah Dist.,24.6063624467976,46.68694779254395
10100003070,3,حي اليمامة,Al Yamamah Dist.,24.596162267906053,46.7159179316469
10100003071,3,حي البديعة,Al Badeah Dist.,24.61618009442305,46.68089417066125
10100003072,3,حي المصانع,Al Masani Dist.,24.552363472683,46.744107438016954
10100003073,3,حي القادسية,Al Qadisiyah Dist.,24.8197305350861,46.82396314233285
10100003074,3,حي الصفا,Al Safa Dist.,24.6668609873924,46.7664509759442
10100003075,3,حي العليا,Al Olaya Dist.,24.692336980601752,46.68349266249455
10100003076,3,حي الدريهمية,Al Duraihemiyah Dist.,24.58947103464505,46.6953271681632
10100003077,3,حي الاسكان,Al Iskan Dist.,24.5739300011678,46.84775127530045
10100003078,3,حي السلام,Al Salam Dist.,24.70776932696165,46.8111998950405
10100003079,3,حي المنار,Al Manar Dist.,24.7253635870059,46.7972684554785
10100003080,3,حي النسيم الشرقي,East Naseem Dist.,24.73900986853885,46.8450047023119
10100003081,3,حي القدس,Al Quds Dist.,24.753868959690948,46.7544135954104
10100003082,3,حي الوادي,Al Wadi Dist.,24.789443862918,46.69123410298775
10100003083,3,حي النفل,Al Nafel Dist.,24.7818840536845,46.6732989602418
10100003084,3,حي المصيف,Al Maseef Dist.,24.76546938950645,46.68152874776675
10100003085,3,حي التعاون,Al Taawun Dist.,24.773041377829202,46.69952030309665
10100003086,3,حي الازدهار,Al Ezdihar Dist.,24.78060508232575,46.7174732328575
10100003087,3,حي الاندلس,Al Andalus Dist.,24.7434819057786,46.78860811434375
10100003088,3,حي الروضة,Al Rawdah Dist.,24.7338276692895,46.7679144040874
10100003089,3,حي الروابي,Al Rawabi Dist.,24.69608355905875,46.79151632966955
10100003090,3,حي الريان,Al Rayan Dist.,24.711310936826848,46.778243088126004
10100003091,3,حي ظهرة البديعة,Dhahrat Al Badeah Dist.,24.597113275296998,46.6509450365725
10100003092,3,حي النظيم,Al Nadheem Dist.,24.86310480597955,46.96753361005775
10100003093,3,حي الرماية,Al Rimayah Dist.,24.770429327526998,46.873648148631105
10100003094,3,حي البرية,Al Bariyah Dist.,24.547295879224748,46.93807058332645
10100003095,3,حي طيبة,Taybah Dist.,24.54173501121845,46.830573858647554
10100003096,3,حي المنصورية,Mansuriyah Dist.,24.518809668795747,46.8015116263254
10100003097,3,حي ضاحية نمار,Dahiyat Namar Dist.,24.496110919061,46.51997666497345
10100003098,3,حي المصفاة,Al Misfat Dist.,24.479509620297748,46.91288960825
10100003099,3,حي السفارات,Assafarat Dist.,24.68037149806085,46.621552194610004
10100003100,3,خشم العان,Khashm Al An,24.6787502227744,46.90763715332745
10100003101,3,حي قرطبة,Qurtubah Dist.,24.816331478928348,46.73579666134545
10100003102,3,حي طويق,Tuwaiq Dist.,24.56802052400235,46.5166574810964
10100003103,3,حي العوالي,Al Awaly Dist.,24.55976226323295,46.61760432368885
10100003104,3,حي الربيع,Al Rabie Dist.,24.79470661223435,46.66067459185665
10100003105,3,حي المغرزات,Al Mughrazat Dist.,24.7640167703495,46.7257525115214
10100003106,3,حي السلي,Al Sulay Dist.,24.654058706220248,46.85279718921165
10100003107,3,حي العقيق,Al Aqeeq Dist.,24.7736098096288,46.62998228686265
10100003108,3,حي النخيل,Al Nakheel Dist.,24.7424194138176,46.622996141393
10100003109,3,حي الغدير,Al Ghadeer Dist.,24.7736416090207,46.6545874252989
10100003110,3,حي المروج,Al Muruj Dist.,24.757227897290598,46.66197230088635
10100003111,3,حي العود,Al Oud Dist.,24.62668608222805,46.726373251683555
10100003112,3,حي ثليم,Thulaim Dist.,24.641313619285647,46.727195779724454
10100003113,3,حي الشميسي,Al Shumaisi Dist.,24.62415941925505,46.699389796295804
10100003114,3,حي الوشام,Al Wisham Dist.,24.643603658432653,46.69827820092435
10100003115,3,منتزه سلام,Salam Park,24.62158032999575,46.708497025764345
10100003116,3,حي الدوبية,Al Dubiyah Dist.,24.6218009840959,46.7121685620506
10100003117,3,حي معكال,Meakal Dist.,24.62301799174875,46.7147441302182
10100003118,3,حي جبرة,Jabrah Dist.,24.625413467261303,46.71934000456605
10100003119,3,حي القرى,Al Qura Dist.,24.62816898443275,46.7156435160465
10100003120,3,حي المرقب,Al Marqab Dist.,24.634901040410803,46.7264928531254
10100003121,3,حي الفوطة,Al Futah Dist.,24.64217056826915,46.71045837812845
10100003122,3,حي ام سليم,Umm Saleem Dist.,24.63375238748865,46.698522117073054
10100003123,3,حي الصحافة,Al Sahafah Dist.,24.79642166136115,46.6376523927872
10100003125,3,حي الرائد,Al Raed Dist.,24.70734925048205,46.6386453349467
10100003126,3,حي العريجاء الغربي,West Oraija Dist.,24.5977810137454,46.5999084910036
10100003127,3,حي العريجاء,Al Uraija Dist.,24.62593670930095,46.656423578769946
10100003128,3,حي العريجاء الوسطى,Middle Oraija Dist.,24.60577725427915,46.6408516832037
10100003129,3,حي الحمراء,Al Hamra Dist.,24.7755121269434,46.753545407450105
10100003130,3,حي الدار البيضاء,Al Dar Al Baida Dist.,24.56496829224325,46.79228144089825
10100003131,3,حي البطيحا,Al Butaiha Dist.,24.62186836150305,46.72010919409445
10100003132,3,حي الزهراء,Al Zahra Dist.,24.687059024064247,46.7320432782066
10100003133,3,حي الفيحاء,Al Fayha Dist.,24.6818827674266,46.811511943789654
10100003134,3,حي المؤتمرات,Al Mutamarat Dist.,24.669859145307598,46.68697127903535
10100003135,3,حي الوسيطاء,Al Wusayta Dist.,24.6241913585327,46.71582379077675
10100003136,3,حي الجنادرية,Al Janadriyah Dist.,24.866099807544,46.924457383912156
10100003137,3,حي اشبيلية,Ishbiliyah Dist.,24.792801833415353,46.792184083976395
10100003138,3,حي المعيزلة,Al Maizalah Dist.,24.7916610711615,46.837708492204996
10100003139,3,حي اليرموك,Al Yarmuk Dist.,24.807833295629848,46.78347919354075
10100003140,3,حي المونسية,Al Munisiyah Dist.,24.83270416595895,46.7677609487883
10100003141,3,حي الخزامى,Al Khuzama Dist.,24.7097900673778,46.609486086377004
10100003142,3,عرقة,Irqah,24.6901071080978,46.587275197180745
10100003143,3,حي ظهرة لبن,Dhahrat Laban Dist.,24.63054499301645,46.53039155957165
10100003144,3,حي حطين,Hitteen Dist.,24.761286829628197,46.6009192885987
10100003145,3,حي الملقا,Al Malqa Dist.,24.8007576935018,46.59773805054185
10100003146,3,حي القيروان,Al Qairawan Dist.,24.873450134131453,46.5552308563955
10100003147,3,حي الياسمين,Al Yasmeen Dist.,24.822886212851202,46.641977672735
10100003148,3,حي العارض,Al Arid Dist.,24.8982943940027,46.60240817645515
10100003149,3,مطار الملك خالد,King Khalid International Airport,24.91590130469345,46.70002448991685
10100003150,3,حي النرجس,Al Narjis Dist.,24.894786248851197,46.6452007643126
10100003151,3,جامعة الامام محمد بن سعود الاسلامية,Imam Muhammed Bin Saud Islamic University,24.8161636730616,46.70485394168685
10100003152,3,حي بنبان,Banban Dist.,24.9849314574818,46.53410080999895
10100003153,3,حي الرمال,Al Rimal Dist.,24.96390412624085,46.7593319076992
10100003155,3,حي غرناطة,Ghirnatah Dist.,24.795701274398198,46.75329395458135
10100003156,3,حي الدحو,Al Dahou Dist.,24.6295143265849,46.7141861800323
10100003157,3,حي العماجية,Al Ammajiyah Dist.,24.4414563781123,46.97782432027145
10100003158,3,حي هيت,Hyt Dist.,24.4784251066111,46.97992152210405
10100003159,3,حي الحائر,Al Haer Dist.,24.4150380465843,46.8881549006652
10100003161,3,حي ام الشعال,Umm Al Shaal Dist.,24.363941302243198,46.96005653013875
10100003162,3,حي الغنامية,Al Ghannamiyah Dist.,24.4760451655819,46.820959167671006
10100003163,3,حي عريض,Oraid Dist.,24.43949017171805,46.72093339959615
10100003164,3,حي بدر,Badr Dist.,24.5328510657778,46.730875941604296
10100003165,3,حي المهدية,Al Mahdiyah Dist.,24.64711272545005,46.53647134617765
10100003166,3,جامعة الملك سعود,King Saud University,24.724004653227247,46.624481099103
10100003167,3,حي النسيم الغربي,West Naseem Dist.,24.72564556889065,46.82400217681045
10100003168,3,حي المشاعل,Al Mishael Dist.,24.61589760722115,46.868709975574504
10100003169,3,حي الندوة,Al Nadwah Dist.,24.79422532676335,46.875425374254505
10100003172,3,حي وادي لبن,Wady Laban Dist.,24.580723154116548,46.500436373975404
10100003174,3,حي السدرة,Al Sidrah Dist.,24.44928733922375,46.88042787708885
10100003175,3,حي التضامن,Al Tadamon Dist.,25.12414033703045,47.0872922596526
10100003176,3,مدينة الملك عبدالله للطاقة,King Abdullah City for Energy,24.5630459259674,46.379854034136045
10100003178,3,حي الرحاب,Al Rihab Dist.,25.0938198625188,47.2702129012795
10100003179,3,حي المجد,Al Majd Dist.,25.06397487219365,47.280928333374106
10100003180,3,حي الدانة,Al Danah Dist.,25.082199434093653,47.230450533850956
10100003182,3,حي الرسالة,Al Risalah Dist.,25.04856042027495,47.23984156252825
10100003183,3,حي الخير,Al Khair Dist.,25.05691918143135,46.427969752665845
10100003184,3,حي الفرسان,Al Fursan Dist.,25.004226125700647,47.1799400575417
10100003185,3,حي الشعلة,Al Sholah Dist.,25.071238822625048,47.1399182118257
10100003186,3,حي الراية,Al Rayah Dist.,25.04187278053145,47.20343888263065
10100003187,3,حي الزهور,Al Zahour Dist.,25.0775580049252,47.20001362086765
10100003188,3,حي الزاهر,Al Zaher Dist.,25.04742618631215,47.0680663846394
10100003189,3,حي المرجان,Al Marjan Dist.,24.9314698788586,46.87627100561765
10100003190,3,حي البيان,Al Bayan Dist.,24.87233843584215,46.86383212203615
10100003191,3,حي العلا,Al Ula Dist.,25.019997497232502,47.1373832208349
10100003192,3,حي المشرق,Al Mashriq Dist.,24.982238113651,47.0513514940929
10100003193,3,حي النخبة,Al Nakhbah Dist.,25.0254343638089,47.2750603759819
10100003194,3,حي السحاب,Al Sahab Dist.,24.93920614689185,46.966102179048704
10100003195,3,حي الوسام,Al Wasam Dist.,24.90574989668785,46.89768082383635
10200005001,5,حي ج10,C10 Dist.,21.59841035801565,40.538003714754254
10200005002,5,حي ضاحية الاسكان,Dhahiyat Al Iskan  Dist.,21.37109617204485,40.6190671500594
10200005003,5,منطقة إمتداد ضاحية الإسكان,Dhahiyat Al Iskan Extension Area,21.394312559992947,40.60344709282765
10200005004,5,حي السيل الكبير,As Sail Al Kabeer  Dist.,21.63981621793805,40.39168639211695
10200005005,5,حي الهدا,Al Huda  Dist.,21.357036085673897,40.30548771915031
10200005006,5,حي الشفا,Ash Shifa  Dist.,21.070195096054952,40.305790530931006
10200005007,5,حي ج3,C3 Dist.,21.360199591174748,40.388068373400046
10200005008,5,حي ج4,C4 Dist.,21.428262895117953,40.407937405365445
10200005009,5,حي ج5,C5 Dist.,21.496129069233348,40.4468398892588
10200005010,5,حي ج43,C43 Dist.,21.2552872086735,40.6686201803444
10200005011,5,حي ج16,C16 Dist.,21.5095932264362,40.718687471637296
10200005012,5,حي ج18,C18 Dist.,21.455204230305547,40.6758020343039
10200005013,5,حي ج11,C11 Dist.,21.58237535870865,40.57780322176
10200005014,5,حي ج12,C12 Dist.,21.5184086212418,40.603739091137996
10200005015,5,حي ج15,C15 Dist.,21.6072172473417,40.66945567271705
10200005016,5,حي ج17,C17 Dist.,21.4679768441609,40.78955393474245
10200005017,5,حي ج22,C22 Dist.,21.38451403870015,40.6509091954741
10200005018,5,حي ج23,C23 Dist.,21.42698059200105,40.5666529892353
10200005019,5,حي ج25,C25 Dist.,21.38018946189005,40.55492925704765
10200005020,5,حي ج26,C26 Dist.,21.36658269960535,40.57549589826735
10200005021,5,حي ج28,C28 Dist.,21.31732083293115,40.56575053708945
10200005022,5,حي ج29,C29 Dist.,21.3379302005057,40.552353932497354
10200005023,5,حي معشي,Maashi  Dist.,21.2834672472619,40.40092223300995
10200005024,5,حي القمرية,Al Qumariyyah  Dist.,21.27738333423685,40.42773884774005
10200005025,5,حي عودة,Awdah  Dist.,21.248879112823047,40.394242176523505
10200005026,5,حي السلامة,As Salamah  Dist.,21.268427212905003,40.402895428654105
10200005027,5,حي قروى,Qurwa  Dist.,21.2764075087996,40.381888017688595
10200005028,5,حي الصيانة,Al Siana Dist.,21.3249036330457,40.4444610003777
10200005029,5,حي سوق عكاظ,Suq Ukadh Dist.,21.478471229556447,40.66191933055755
10200005030,5,حي ج21,C21 Dist.,21.408105575133952,40.6274325598092
10200005031,5,حي ج44,C44 Dist.,21.3351738630143,40.34890158740935
10200005032,5,حي ج27,C27 Dist.,21.355601267635,40.58805057839655
10200005033,5,حي الشهداء الجنوبية,Ashuhada Aljanubiyyah  Dist.,21.259970168848298,40.423057155835096
10200005034,5,حي شهار,Shihar  Dist.,21.2513742567878,40.4139464851408
10200005035,5,حي ج20,C20 Dist.,21.45788370438735,40.59063688160545
10200005036,5,حي نخب,Nakhab  Dist.,21.2537502648232,40.45499842459
10200005037,5,حي حوايا الشمالية,Huwaya Ash Shamaliyyah Dist.,21.26739748502595,40.413436616008354
10200005038,5,حي الخالدية,Al Khalidiyah Dist.,21.2864501265949,40.3849163522265
10200005039,5,حي مسرة 1,Masarah 1 Dist.,21.29329454635025,40.39244329419405
10200005040,5,حي الربيع,Ar Rabie Dist.,21.2661576366071,40.442979819016045
10200005041,5,حي السلام,Al Salam Dist.,21.304861589852102,40.408162690967444
10200005042,5,حي الربوة,Ar Rabwah  Dist.,21.28876321120515,40.40270851382715
10200005043,5,حي حوايا الجنوبية,Huwaya Al Janoubiyah  Dist.,21.2625899892817,40.4117416617479
10200005044,5,حي القطبية,Al Qutbiyyah  Dist.,21.284625683926848,40.428821695589946
10200005045,5,حي العارمية 2,Al Aarmiah 2 Dist.,21.38407226819455,40.4839589995915
10200005046,5,حي المعترض,Al Mutarid  Dist.,21.44140407882805,40.5083849197446
10200005047,5,حي الرويدف,Al Ruwaidaf Dist.,21.407957340064847,40.4963890601989
10200005048,5,حي الجوهرة,Al Jawharah  Dist.,21.4188417013332,40.5094002419325
10200005049,5,حي القميع,Qami Dist.,21.4543706927194,40.45863578931115
10200005050,5,حي جبرة,Jabrah Dist.,21.30280400744285,40.44755545026395
10200005051,5,حي الجفيجف,Al Jafijif Dist.,21.2951421927771,40.4381879805309
10200005052,5,حي الرحاب,Al Rehab Dist.,21.45442095319825,40.43284733437645
10200005053,5,حي ج1,C1 Dist.,21.2600419846966,40.34516482481
10200005054,5,حي الحلقة الغربية,Al Halqah Al Gharbia Dist.,21.35398799592605,40.4339429009806
10200005055,5,حي ج6,C6 Dist.,21.49283807932655,40.489395231854445
10200005056,5,حي المثناه,Al Mathnah  Dist.,21.2578847629504,40.3867082097919
10200005057,5,حي الخضيرة,Hadera  Dist.,21.44526188594795,40.524990450735004
10200005058,5,حي ج37,C37 Dist.,21.2093965331316,40.4440077722367
10200005059,5,حي ج35,C35 Dist.,21.29681377075125,40.47945699652145
10200005060,5,حي الجال,Al Jal  Dist.,21.2828758349123,40.4392809341776
10200005061,5,حي السرور,As Sarur Dist.,21.282829900043552,40.451823602527654
10200005062,5,حي النسيم,Al Naseem Dist.,21.26421252817955,40.4648579948741
10200005063,5,حي المركزية,Al Markazia Dist.,21.27356752300285,40.4070594122705
10200005064,5,حي الريان,Ar Rayyan  Dist.,21.284055113553002,40.42274549836605
10200005065,5,حي شبرا,Shobra  Dist.,21.28149211080835,40.41552639285825
10200005066,5,حي الشرقية,Sharqia Dist.,21.274459992368598,40.41724994634825
10200005067,5,حي العقيق,Al Aqiq  Dist.,21.287732753456453,40.4104604122687
10200005068,5,حي العزيزية,Al Aziziyah Dist.,21.27958170077445,40.409172731975204
10200005069,5,حي ريحه,Riha  Dist.,21.46609810318095,40.4506125079518
10200005070,5,حي الوشحاء,Al Washha Dist.,21.25163265574215,40.43538476436015
10200005071,5,حي الشهداء الشمالية,Ashuhada Alshamaliyyah  Dist.,21.26861610580475,40.42352999436285
10200005072,5,حي ج9,C9 Dist.,21.534906150138852,40.529131128939554
10200005073,5,حي قوات الدفاع الجوي,Air Defense Forces Dist.,21.56402187626195,40.624642021768096
10200005074,5,حي الاسكان,Al Iskan Dist.,21.43060564526905,40.45151860404735
10200005075,5,حي المضباع,Al Mudhbah Dist.,21.449889130260452,40.476862583752805
10200005076,5,حي الواسط,Al Wasit  Dist.,21.47822407328605,40.4664211750455
10200005077,5,حي ج33,C33 Dist.,21.2820807474882,40.56061251857405
10200005078,5,حي النزهة,An Nuzhah Dist.,21.2532222127236,40.42020019809235
10200005079,5,حي ج8,C8 Dist.,21.540788172495247,40.493981797438195
10200005080,5,حي الضبط,Al Dhabt Dist.,21.392564334208302,40.422280794312655
10200005081,5,حي السويقة,Al Sawaiqa Dist.,21.33352576116065,40.40409927598725
10200005082,5,حي ج36,C36 Dist.,21.24966815438475,40.5608469345515
10200005083,5,حي مثمله,Masmla Dist.,21.492545627774298,40.5276908384092
10200005084,5,حي الحوية,Al Huwaya Dist.,21.430763036321,40.4749659999333
10200005085,5,حي ج40,C40 Dist.,21.18843062840145,40.57613555901245
10200005086,5,حي ج41,C41 Dist.,21.16924381977515,40.6234168868722
10200005087,5,حي الاخباب,Akhbab Dist.,21.22109975732735,40.37436031457115
10200005088,5,حي القراحين,Alqrahin Dist.,21.22965474018105,40.3925498239955
10200005089,5,حي السداد,As Sadad Dist.,21.22873059712445,40.41561406791545
10200005090,5,حي أم العراد,Umm Alarad  Dist.,21.242662195959397,40.4062387942172
10200005091,5,حي الحدائق,Al Hadaek Dist.,21.23336213779195,40.43236662851605
10200005092,5,حي أم السباع,Al Sabaa  Dist.,21.2335808402735,40.458536724232005
10200005093,5,حي المعارض,Al Maarid  Dist.,21.254140052477453,40.4447078334734
10200005094,5,حي الردف,Ar Ruddaf Dist.,21.224792089896752,40.42818532222075
10200005095,5,حي ج32,C32 Dist.,21.3196378619299,40.5260739750332
10200005096,5,حي ج30,C30 Dist.,21.3569390961013,40.523751156669945
10200005097,5,حي ج31,C31 Dist.,21.37863924444295,40.511574015093245
10200005098,5,حي ج24,C24 Dist.,21.40387778881025,40.5304929856991
10200005099,5,حي الحلقة الشرقية,Asharqiyyah Dist.,21.349259969046997,40.45223558322825
10200005100,5,حي القيم الأسفل,Al Qayam Al Asfal Dist.,21.36719429835395,40.4464677640302
10200005101,5,المطار الدولي الجديد,New International Airport,21.422306676444997,40.6960639234057
10200005102,5,حي ج14,C14 Dist.,21.55889199986995,40.7054800103118
10200005103,5,حي ج13,C13 Dist.,21.54350152563245,40.6498806504303
10200005104,5,حي القيم الأعلى,Al Qayam Al Aala Dist.,21.338298679694148,40.42994751796709
10200005105,5,حي ج7,C7 Dist.,21.5194852971134,40.4917206866741
10200005106,5,حي ج19,C19 Dist.,21.4776544053517,40.626151544220804
10200005107,5,حي ج34,C34 Dist.,21.27823274240565,40.506514079969946
10200005108,5,حي العرج الأسفل,Al Urj Al Asfal Dist.,21.34296514704325,40.4846419855909
10200005109,5,جامعة الطائف الجديدة,New Taif University,21.3319958187179,40.50428476125265
10200005110,5,حي مسرة 2,Masarah 2 Dist.,21.29662654935165,40.3550869989092
10200005111,5,حي الفيصلية,Al Faisaliyah Dist.,21.30448248559695,40.421597882783104
10200005112,5,حي العرج الأعلى,Al Urj Al Aala Dist.,21.3219407764227,40.46400847806875
10200005113,5,حي ج39,C39 Dist.,21.193413603366,40.53859551587235
10200005114,5,حي ج38,C38 Dist.,21.216899452278952,40.499413823600946
10200005115,5,حي الغمير,Al Ghumayr Dist.,21.3119193270466,40.37671487715285
10200005116,5,حي العارمية 1,Al Aarmiah 1 Dist.,21.393242903178148,40.4658857258658
10200005117,5,حي القديرة,Al Qadirah Dist.,21.3960130737317,40.45271956197445
10200006001,6,حي العدل,Al Adl Dist.,21.4454258675,39.87613432850015
10200006002,6,حي الروضة,Ar Rawdah Dist.,21.42734410800015,39.8489202760001
10200006003,6,حي المعابدة,Al Maabdah Dist.,21.435556924500048,39.8476833175001
10200006004,6,حي الخنساء,Al Khansa Dist.,21.447434749815052,39.84670472494895
10200006005,6,حي السليمانية,As Sulimaniyah Dist.,21.4323234870001,39.83254436750015
10200006006,6,حي الجميزة,Al Jummayzah Dist.,21.4382287070001,39.8334213695001
10200006007,6,حي جبل النور,Jabal An Nur Dist.,21.45694026100015,39.87139041100011
10200006008,6,حي الهنداوية,Al Hindawiyah Dist.,21.41671993761385,39.7991557230001
10200006009,6,حي الرصيفة,Ar Rusayfah Dist.,21.411723223000102,39.7893656570001
10200006010,6,حي جرهم,Jarham Dist.,21.40510497150015,39.81444605150015
10200006011,6,حي الخالدية,Al Khalidiyah Dist.,21.40287851200005,39.7989335440001
10200006012,6,حي المسفلة,Al Misfalah Dist.,21.4044166370001,39.822153511500105
10200006013,6,حي التقوى,At Taqwa Dist.,21.3942258030002,39.8182032930001
10200006014,6,حي كدي,Kudy Dist.,21.4001813570001,39.83897558863945
10200006015,6,حي القرارة والنقا,Al Qararah And An Naqa Dist.,21.42911351800005,39.8254160730001
10200006016,6,حي الحرم,Al Haram Dist.,21.423167031980647,39.8259712615001
10200006017,6,حي حارة الباب والشامية,Harat Al Bab And Ash Shamiyah Dist.,21.42493791200015,39.8226354590001
10200006018,6,حي التيسير,At Taysir Dist.,21.42866538250005,39.81142981950005
10200006019,6,حي جرول,Jarwal Dist.,21.42956964600765,39.81871602850015
10200006020,6,حي المشاعر,Al Mashair Dist.,21.392255146127653,39.936303003187405
10200006021,6,حي المرسلات,Al Mursalat Dist.,21.40667005150015,39.8813447153961
10200006022,6,حي العزيزية,Al Aziziyah Dist.,21.41543709180405,39.854908824914645
10200006023,6,حي الجامعة,Al Jamiah Dist.,21.397391529500098,39.877904284500104
10200006024,6,حي النسيم,Al Naseem Dist.,21.382266936192302,39.87265823221985
10200006025,6,حي الزهراء,Az Zahra Dist.,21.427895175923148,39.7980025055001
10200006026,6,حي الضيافة,Ad Diyafah Dist.,21.4365634885,39.798273497000096
10200006027,6,حي البيبان,Al Bibyan Dist.,21.436680817000102,39.8078528335
10200006028,6,حي الحجون,Al Hujun Dist.,21.43660179793985,39.8188280440001
10200006029,6,حي الطندباوي,At Tandabawi Dist.,21.41774985866365,39.8139202525001
10200006030,6,حي الشبيكة,Ash Shubaikah Dist.,21.4176810000001,39.8197537475001
10200006031,6,حي الهجلة,Al Hajlah Dist.,21.41682372600005,39.82452359450015
10200006032,6,حي المنصور,Al Mansur Dist.,21.4177463090001,39.810329749500056
10200006033,6,حي الكعكية,Al Kakiyah Dist.,21.37921490250005,39.8148027485001
10200006034,6,حي الشوقية,Ash Shawqiyah Dist.,21.385560478000052,39.79656015400005
10200006035,6,حي الهجرة,Al Hijrah Dist.,21.37513657440165,39.846862100458154
10200006036,6,حي بطحاء قريش,Batha Quraysh Dist.,21.36258300640365,39.8385421218128
10200006037,6,حي شرائع المجاهدين,Sharai Al Mujahidin Dist.,21.5183866771599,39.9399354940427
10200006038,6,حي العوالي,Al Awali Dist.,21.309050583500103,39.9326842030001
10200006039,6,حي الشرائع,Asharai  Dist.,21.51335077000015,39.9164636195
10200006040,6,حي الراشدية,Ar Rashidiyah Dist.,21.46451499599865,39.970192319804
10200006041,6,حي الخضراء,Al Khadra Dist.,21.43440216650015,39.94590157700015
10200006042,6,حي الملك فهد,King Fahd Dist.,21.37570897650005,39.7045523675539
10200006043,6,حي العكيشية,Al Ukayshiyah Dist.,21.26684266429985,39.8623954583663
10200006044,6,حي ولي العهد,Waly Al Ahd Dist.,21.3006901346747,39.728028276500154
10200006045,6,حي الاندلس,Al Andalus Dist.,21.4567209155201,39.8264178900001
10200006046,6,حي ريع زاخر,Ray Zakhir Dist.,21.45899351781705,39.83733016150005
10200006047,6,حي التنعيم,At Tanim Dist.,21.49033634750015,39.81297954850015
10200006048,6,حي الزاهر,Az Zahir Dist.,21.448000509500048,39.797182239000094
10200006049,6,حي شعب عامر وشعب علي,Shaib Amir and Shaib Ali Dist.,21.42697680950005,39.83195379515465
10200006050,6,حي اجياد,Ajyad Dist.,21.41803855600015,39.83127583383625
10200006051,6,حي الحمراء وام الجود,Al Hamra Umm Al Jud Dist.,21.399905350000097,39.69508337150015
10200006052,6,حي النزهة,An Nuzhah Dist.,21.430683406903448,39.7841327390001
10200006053,6,حي العتيبية,Al Utaybiyah Dist.,21.452749629000152,39.8175873668805
10200006054,6,حي الروابي,Ar Rawabi Dist.,21.41023473934185,39.833987837205555
10200006055,6,حي العمرة الجديدة,Al Umrah Al Jadidah Dist.,21.5618050765001,39.81182216250015
10200006056,6,حي السلامة,As Salamah Dist.,21.4659914138904,39.698327840000104
10200006057,6,حي البحيرات,Al Buhayrat Dist.,21.48922889600005,39.753556254500154
10200006058,6,حي النوارية,An Nawwariyah Dist.,21.5351676980001,39.73954221000015
10200006059,6,حي الشهداء,Ash Shuhada Dist.,21.45604598050015,39.806936939000096
10200006060,6,حي وادي جليل,Wadi Jalil Dist.,21.485358572000102,39.8605266350001
10200006061,6,حي العسيلة,Al Usaylah Dist.,21.5153034980001,39.8714968050001
10800010001,10,حي اجا,Aja Dist.,27.56354968400015,41.68795761050015
10800010002,10,حي العزيزية,Al Aziziyah Dist.,27.532411642658303,41.67800536103065
10800010003,10,حي المزعبر,Al Muzaabar Dist.,27.5319646025001,41.7097608965001
10800010004,10,حي برزان,Barzan Dist.,27.52634133106055,41.7027387640002
10800010005,10,حي المحطة,Al Mahattah Dist.,27.51745289250015,41.6902008605001
10800010006,10,حي سماح,Samah Dist.,27.5188861940001,41.698984633862295
10800010007,10,حي لبدة,Labdah Dist.,27.5189003325001,41.7093926745001
10800010008,10,حي الزبارة,Az Zibarah Dist.,27.5055237710001,41.70647411674055
10800010009,10,حي السمراء,As Samra Dist.,27.49649224000015,41.719219664500045
10800010010,10,المنطقة الصناعية,Industrial Area,27.485188194000152,41.76095265200005
10800010011,10,حي الزهراء,Az Zahra Dist.,27.56181179000015,41.7162373965001
10800010012,10,حي الخزامى,Al Khuzama Dist.,27.5797036945001,41.72051509300015
10800010013,10,حي مغيضة,Mughaydah Dist.,27.527442301500102,41.718053840000195
10800010014,10,حي حدري البلاد,Hadri Al Bilad Dist.,27.54596370000015,41.7666119012451
10800010015,10,حي الخريمي,Al Khuraymi Dist.,27.5145611155001,41.75945483842285
10800010016,10,حي السويفلة,As Suwayfilah Dist.,27.58871776350005,41.7728585045001
10800010018,10,حي البدنة,Al Badnah Dist.,27.465492716155147,41.727155772000145
10800010019,10,حي الوسيطاء,Al Wusayta Dist.,27.50812183400015,41.67012117341355
10800010020,10,حي صبابة,Sababah Dist.,27.52215334353415,41.64750252968665
10800010021,10,حي المطار,Al Matar Dist.,27.49576576600015,41.6893365445
10800010022,10,حي البحيرة,Al Buhayrah Dist.,27.484705791500048,41.69868651450015
10800010025,10,حي النقرة,An Naqrah Dist.,27.472328574677952,41.658106234728905
10800010026,10,حي الخماشية,Al Khamashiyah Dist.,27.47885329810655,41.72411231550015
10800010027,10,مطار حائل الدولي,Hail International Airport,27.4486937275003,41.6815741755003
10800010029,10,حي السويفلة,As Suwayfilah Dist.,27.6206878510001,41.7324623975001
10800010030,10,حي النسية,An Nasiyah Dist.,27.623391455500148,41.6915210385001
10800010031,10,حي المنتزه الغربي,Al Muntazah Al Gharbi Dist.,27.54630856550005,41.682391177500094
10800010032,10,حي المصيف,Al Masif Dist.,27.584260509500048,41.69053853850005
10800010033,10,حي المنتزه الشرقي,Al Muntazah Ash Sharqi Dist.,27.5444753045001,41.712361306784246
10800010034,10,حي اللقيطة,Al Laqitah Dist.,27.6466938935691,41.699242276354454
10800010035,10,حي الوادي,Al Wadi Dist.,27.42639817844875,41.59140179089995
10800010036,10,حي الرصف,Ar Rasf Dist.,27.4441536451716,41.614700850138405
10400011001,11,حي اليرموك,Al Yarmouk Dist.,26.228854396399647,44.0017068187639
10400011002,11,حي الرمال,Ar Rimal Dist.,26.2326545233144,43.9593634301431
10400011003,11,حي المروة,Al Marwah Dist.,26.2385417795005,44.05068967958345
10400011004,11,حي الخضر,Al Khudar Dist.,26.2528700973586,43.991894666391445
10400011005,11,حي اللسيب,Al Lusayb Dist.,26.2592376723311,43.93626727113775
10400011006,11,حي النور,Al Nur Dist.,26.34756616642005,43.96791537450005
10400011007,11,حي رواق,Rawaq Dist.,26.26199396250025,44.010265607609
10400011008,11,حي القصيعة,Al Qusayah Dist.,26.2570003345864,43.95946045304645
10400011009,11,حي الغدير,Al Ghadir Dist.,26.26925891916775,44.0381245470002
10400011010,11,حي المروج,Al Muruj Dist.,26.27536448083275,43.97980983749635
10400011011,11,حي السالمية,As Salmiya Dist.,26.2837800599423,43.992532541500196
10400011012,11,حي الروابي,Al Rawabi Dist.,26.29249233457775,44.0473599840521
10400011013,11,حي حويلان,Huwailan Dist.,26.2931141329913,43.94356391783085
10400011014,11,حي الصباخ,As Sabbakh Dist.,26.3051050410368,43.9813869020356
10400011015,11,حي واسط,Wasit Dist.,26.29714064854285,43.95764762951555
10400011016,11,حي خضيراء,Khudayra Dist.,26.2973545179015,44.0190841090906
10400011017,11,حي السلام,As Salam Dist.,26.3012878872377,43.9970286296196
10400011018,11,حي الجنوب,Al Janub Dist.,26.31701445606965,43.97627671163705
10400011019,11,حي الخليج,Al Khalij Dist.,26.304923506929,43.97438216493895
10400011020,11,حي الضاحي,Ad Dahi Dist.,26.310143416500047,44.04264179450005
10400011021,11,حي خب البريدي,Khub Al Buraydi Dist.,26.3146768074946,43.93781152284585
10400011022,11,حي السادة,As Sadah Dist.,26.3205807740486,43.98554122272455
10400011023,11,حي العريمضي,Al Uraymdi Dist.,26.30003631063995,43.91678123284555
10400011024,11,حي الهلال,Al Hilal Dist.,26.324760409336598,43.96481126314475
10400011025,11,حي العجيبة,Al Ujaybah Dist.,26.3264526801733,43.9689622966642
10400011026,11,حي البساتين,Al Basatin Dist.,26.3198340198302,44.020942995496696
10400011027,11,حي النسيم,Al Naseem Dist.,26.32261312827105,43.9997388239988
10400011028,11,حي الموطا,Al Mawta Dist.,26.31313383996205,43.96152735818425
10400011029,11,حي التعليم,At Taalim Dist.,26.32634272689735,43.979219987176705
10400011030,11,حي الجردة,Al Jardah Dist.,26.32493623771625,43.97275100916695
10400011031,11,حي الصالحية,As Salhiyah Dist.,26.32760699619415,43.986767421972544
10400011032,11,حي المريديسية,Al Muraydisiyyah Dist.,26.306032699310798,43.92384247711775
10400011033,11,حي الشروق,Al Shorouq Dist.,26.32811126209075,44.04343808210225
10400011034,11,حي خب الثنيان,Khub Ath Thanyan Dist.,26.32792066071185,43.93419655944495
10400011035,11,حي الشماس,Ash Shammas Dist.,26.332983782333798,43.961742377338254
10400011036,11,حي القادسية,Al Qadisiyah Dist.,26.334661669416697,43.95254849254415
10400011037,11,حي الصفا,As Safa Dist.,26.33067802721515,43.943377041774994
10400011038,11,حي الخبيب,Al Khabib Dist.,26.33585113991255,43.9730494475272
10400011039,11,حي المرقب,Al Marqab Dist.,26.34206048980205,43.9553176171718
10400011040,11,حي الربيع,Ash Shafaq Dist.,26.34134935502815,43.98380589774225
10400011041,11,حي الرفيعة,Ar Rafiah Dist.,26.3407037120002,43.9968895124294
10400011042,11,حي الزرقاء,Az Zarqa Dist.,26.3451501057314,43.92367863387339
10400011043,11,حي الحمر,Al Humar Dist.,26.34334106050015,43.89905570450005
10400011044,11,حي الشفق,Ash Shafaq Dist.,26.34374376523995,43.864038783881895
10400011045,11,حي القاع البارد,Al Qaa Al Barid Dist.,26.3505632530819,44.02031552800025
10400011046,11,حي المنار,Al Naseem Dist.,26.35540077311455,43.9315231929478
10400011047,11,حي الوسيطا,Al Wusayta Dist.,26.3474540467488,44.03254820387235
10400011048,11,حي الربوة,Ar Rabwah Dist.,26.3587900053609,43.9787048560098
10400011049,11,حي المنتزه,Al Muntazah Dist.,26.355858377279603,43.942780777000095
10400011050,11,حي الصفراء,As Safra Dist.,26.365550806167597,43.949031325262055
10400011051,11,حي النقع,An Naqa Dist.,26.36690883433895,43.99922710138195
10400011052,11,حي الفايزية,Al Fayziyah Dist.,26.3711369490114,43.97422498862235
10400011053,11,حي النخيل,Al Nakhil Dist.,26.368065789865703,43.90405584113475
10400011054,11,حي الروضه,Ar Rawdah Dist.,26.380514313807048,43.9177562465603
10400011055,11,حي النفل,An Nafl Dist.,26.38032691656085,44.021921819812945
10400011056,11,حي الإسكان,Al Iskan Dist.,26.385050034739,43.941734811682494
10400011057,11,حي الأخضر,Al Akhdar Dist.,26.3908008147039,43.972243789140606
10400011058,11,حي الشقة,Ash Shiqah Dist.,26.375207589324198,43.8436850832744
10400011059,11,حي الرابية,Ar Rabiyah Dist.,26.39459443833075,44.0030459305002
10400011060,11,حي الريان,Ar Rayyan Dist.,26.397035221500097,43.9082988180001
10400011061,11,حي النهضة,An Nahdah Dist.,26.407827212081003,43.9324947389564
10400011062,11,حي الافق,Al Ufuq Dist.,26.4004068997482,43.95322764740605
10400011063,11,حي الورود,Al Wurud Dist.,26.410676262196553,43.9623607070002
10400011064,11,حي الخزامى,Al Khuzama Dist.,26.41056654670465,43.99611168816605
10400011065,11,حي الجزيرة,Al Jazirah Dist.,26.4084156618498,43.87429417325335
10400011066,11,حي الرحاب,Directions Dist.,26.422113829752348,43.8963429390444
10400011067,11,حي الحزم,Al Hazm Dist.,26.432616658716,43.920618254847454
10400011068,11,حي الفاروق,Al Farouq Dist.,26.4414836982086,43.9491784655047
10400011069,11,حي التشليح,At Tashlih Dist.,26.29711934100035,44.07356120624735
10500012001,12,حي الزهرة,Az Zahrah Dist.,25.32606020176125,49.58418670821095
10500012002,12,حي المربدية,Al Marbidia Dist.,25.354651029051148,49.5825684945825
10500012003,12,حي القدس,Al Quds Dist.,25.305357571212802,49.53218215623795
10500012004,12,حي الجوهرة,Al Jawharah Dist.,25.31870791387475,49.5496580479167
10500012005,12,حي الورود الثاني,Al Wurud 2nd Dist.,25.2777596724083,49.57922032722685
10500012006,12,حي المهندسين,Al Muhandisin Dist.,25.32182848378955,49.5375006001006
10500012007,12,حي عين موسى,Ayn Musa Dist.,25.36780903885925,49.60136001475985
10500012008,12,حي الصقور,As Suqur Dist.,25.291113255498303,49.5432765859507
10500012009,12,حي الواحة,Al Wahah Dist.,25.32684273875695,49.61881863338335
10500012010,12,حي الهدا,Al Hada Dist.,25.2913880493216,49.5572095661997
10500012011,12,حي الثليثية,Al Thulaythiyah Dist.,25.3611947596164,49.58797968398315
10500012012,12,حي المعلمين,Al Muallimeen  Dist.,25.3661694679135,49.5729924171674
10500012013,12,حي العاصمة,Al Asimah Dist.,25.3063878091293,49.5500439796788
10500012014,12,حي الأمراء,Al Omaraa Dist.,25.2949574921686,49.57176117286275
10500012015,12,حي النخيل,Al Nakhil Dist.,25.3600599246314,49.6451507090758
10500012016,12,حي العزيزية الثاني,Al Aziziyah 2nd Dist.,25.3420075094846,49.56394500394835
10500012017,12,حي الحمراء الثالث,Al Hamra 3rd Dist.,25.30787116196955,49.5647686566528
10500012018,12,حي المرقاب,Al Mirqab Dist.,25.350497776805703,49.58370137380609
10500012019,12,حي الرابية,Ar Rabiyah Dist.,25.29791115200355,49.588491731813946
10500012020,12,حي الحزام الأخضر,Al Hizam Al Akhdar Dist.,25.3165432356175,49.63747888651015
10500012021,12,حي الجامعيين,Al Jamiyin Dist.,25.3146200983186,49.5863540029545
10500012022,12,حي الروضة,Ar Rawdah Dist.,25.35368990808,49.6071016488344
10500012023,12,حي غرناطة,Ghirnatah Dist.,25.329489692590798,49.5459484487453
10500012024,12,حي الصحافة,As Sahafah Dist.,25.351954747730453,49.6461505228708
10500012025,12,حي الزهراء,Az Zahra Dist.,25.354359356347203,49.6607089652234
10500012026,12,حي ام خريسان,Um Khraisan Dist.,25.3866339483328,49.58490662196145
10500012027,12,حي العليا,Al Olaya Dist.,25.357824062318798,49.594976372770546
10500012028,12,حي الحمراء الثاني,Al Hamra 2nd Dist.,25.3120177096304,49.56859839513724
10500012029,12,حي البدرية,Al Badriyah Dist.,25.31596090669445,49.518790329631244
10500012030,12,حي السنيدية,As Sunaidah Dist.,25.35712711146015,49.576509829209655
10500012031,12,حي المحمدية,Al Muhammadiyah Dist.,25.37235129266425,49.56274450927205
10500012032,12,حي لذه,Ladhah Dist.,25.348407124702348,49.589115302662
10500012033,12,حي مجمع الدوائر الحكومية الثاني,Government Departments Complex 2nd  Dist.,25.320824540241553,49.561055325816895
10500012034,12,حي المزروع الثاني,Al Mazrooa 2nd Dist.,25.335577496772252,49.618517036974254
10500012035,12,حي الورود الثالث,Al Wurud 3rd Dist.,25.277938669652897,49.54454340475125
10500012036,12,حي الربوه,Ar Rabwah Dist.,25.339255199945697,49.5291451034647
10500012037,12,حي الرويضة,Ar Ruwaida Dist.,25.35478655962525,49.6174955884146
10500012038,12,حي الرفيعة,Ar Rafiah Dist.,25.3617350806348,49.5761585542552
10500012039,12,حي الحوراء,Al Hawra Dist.,25.349717709422897,49.620391968184094
10500012040,12,حي الرقيقة,Ar Ruqaiqah Dist.,25.3562693318014,49.5700767842713
10500012041,12,حي المزروع الاول,Al Mazrooa 1st Dist.,25.3416933062695,49.60908236678705
10500012042,12,حي جوبا,Juba Dist.,25.346737288005798,49.58377525427525
10500012043,12,حي البصيرة,Al Busairah Dist.,25.370857298898102,49.607283796743445
10500012044,12,حي المروج الجنوبي,Al Muruj Al Junubi Dist.,25.360453571409302,49.65865828714965
10500012045,12,حي السليمانية,As Sulaimaniyah Dist.,25.379312510090003,49.5996948206338
10500012046,12,حي الحمراء الأول,Al Hamra 1st Dist.,25.314392162574947,49.57681295444415
10500012047,12,حي الشهابية,Ash Shihabiyah Dist.,25.3608239558912,49.6144156200749
10500012048,12,حي العزيزية الأول,Al Aziziyah 1st Dist.,25.3299357772053,49.571521565959756
10500012049,12,جامعة الملك فيصل الأول,King Faisal University 1st,25.341028173652347,49.5982237711832
10500012050,12,حي المطار,Al Matar Dist.,25.28745659047045,49.51813487626515
10500012051,12,حي هجر,Hajr Dist.,25.31406584461785,49.624583704464754
10500012052,12,حي منسوبي التعليم الأول,Mansubi Al Taleem 1st Dist.,25.30667188580955,49.5977489933912
10500012053,12,حي منيفة,Munifah Dist.,25.349228894579902,49.574647936745905
10500012054,12,حي البندرية,Al Bandariyah Dist.,25.340474036316202,49.5752932688966
10500012055,12,حي العويمرية,Al Uwaimiriyah Dist.,25.354594854914048,49.589044901286954
10500012056,12,حي النايفية,An Nayfiyah Dist.,25.33324304470125,49.55623819716785
10500012057,12,حي النسيم,Al Naseem Dist.,25.3304924403128,49.609122948892406
10500012058,12,حي الدوحة,Al Doha Dist.,25.30402581644075,49.6361934302977
10500012059,12,حي المثلث,Al Muthalath Dist.,25.35003237251795,49.60063195760715
10500012060,12,حي الريان,Ar Rayyan Dist.,25.329352884985653,49.630748860466255
10500012061,12,منطقة الغويبة الزراعية,Alghawbia Agricultural Area,25.314565440070048,49.654546233151194
10500012062,12,حي الوسيطة,Al Wasitah Dist.,25.361095514989252,49.582288130379496
10500012063,12,حي السلمانية الثاني,As Sulimaniyah 2nd Dist.,25.36292029710735,49.540873709269
10500012064,12,حي الشغيبية,Al Shagaibiyah Dist.,25.36936977282725,49.58048722805265
10500012065,12,جامعة الملك فيصل الثالث,King Faisal University 3rd,25.3146721271517,49.61189130130825
10500012066,12,حي الإسكان الأول,Al Iskan 1st Dist.,25.32073859867245,49.59636887492065
10500012067,12,حي صويدرة,As Suwaidirah Dist.,25.3709743278741,49.628687864449404
10500012068,12,حي الخالدية,Al Khalidiyah Dist.,25.3360872913787,49.587902516713456
10500012069,12,حي السلمانية الرابع,As Sulimaniyah 4th Dist.,25.348426680229,49.53632132178795
10500012070,12,حي منسوبي التعليم الثاني,Mansubi Al Taleem 2nd Dist.,25.297908113172248,49.60173541824665
10500012071,12,حي الورود الأول,Al Wurud 1st Dist.,25.2786449446413,49.6103007868818
10500012072,12,حي الفيصلية الثاني,Al Faisaliyah 2nd Dist.,25.390488088363902,49.6032788449615
10500012073,12,حي الناصرية,An Nasriyah Dist.,25.3764951548822,49.594366204542496
10500012074,12,حي اللويمي,Al Luwaymi Dist.,25.38431342927165,49.63131381648755
10500012075,12,حي الخدود,Al Khudud Dist.,25.38327202307545,49.612425039220554
10500012076,12,حي السلمانية الثالث,As Sulimaniyah 3rd Dist.,25.3509006877866,49.55349315874565
10500012077,12,حي المزروعية,Al Mazruiyah Dist.,25.37096165336655,49.5719940109051
10500012078,12,حي المجيدية,Al Majidiyah Dist.,25.325887121415548,49.5232234103141
10500012079,12,حي الملك فهد,King Fahd Dist.,25.3560023173995,49.632409458059
10500012080,12,حي التعاون,At Taawun Dist.,25.3836331125541,49.59483283818615
10500012081,12,حي الدانة,Al Danah Dist.,25.289883235774,49.6075742880668
10500012082,12,حي الفردوس,Al Fardus Dist.,25.37258494512635,49.6437841850747
10500012083,12,حي السيفة,As Saifa Dist.,25.38344581249605,49.57473207887015
10500012084,12,حي الحفيرة,Al Hufayrah Dist.,25.35347075403005,49.5633583781173
10500012085,12,حي السلمانية الأول,As Sulimaniyah 1st Dist.,25.3682571947851,49.5540187073742
10500012086,12,حي الصالحية,As Salhiyah Dist.,25.36693867801955,49.5934545766938
10500012087,12,حي المباركية,Al Mubarakiyah Dist.,25.369774017047448,49.61234670649959
10500012088,12,جامعة الامام محمد بن سعود الاسلامية,Imam Muhammed Ibn Saud Islamic University,25.30289818785065,49.51500134155715
10500012089,12,حي الفيصلية الأول,Al Faisaliyah 1st Dist.,25.38764673611075,49.592854047155456
10500012090,12,حي وسط الهفوف التاريخي,Historical Center Hafuf Dist.,25.372702933750503,49.58744987979625
10500012091,12,جامعة الملك فيصل الثاني,King Faisal University 2nd,25.322924860407298,49.606016297959656
10500012092,12,حي الإسكان الثاني,Al Iskan 2nd Dist.,25.28647006607995,49.578386449831854
10500012093,12,المدينة الرياضية,Sports City,25.3093745884382,49.61476098424095
10500012094,12,حي المروج الشمالي,Al Muruj Al Shimali Dist.,25.36947220996825,49.6579701092987
10500012095,12,مطار الأحساء,Al Ahsa Airport,25.288665895242247,49.4858586142256
10500013001,13,حي الخالدية الشمالية,Al Khalidiyah Ash Shamaliyah Dist.,26.41381811500015,50.14641839650005
10500013002,13,حي الناصرية,An Nasriyah Dist.,26.42230445350005,50.12255967050015
10500013003,13,حي الصناعية الاولى,1st Industrial Dist.,26.39839217550005,50.140488750500054
10500013004,13,حي الفنار,Al Fanar Dist.,26.4090579630001,50.2007100980001
10500013005,13,حي الأثير,Al Athir Dist.,26.4314567805002,50.06029132350005
10500013006,13,حي الجلوية,Al Jalawiyah Dist.,26.434493458,50.0749227420001
10500013007,13,حي النخيل,Al Nakhil Dist.,26.4387126805,50.08914073550005
10500013008,13,حي القزاز,Al Qazaz Dist.,26.435762682000153,50.0908645080001
10500013009,13,حي البادية,Al Badiyah Dist.,26.426914276000097,50.09098443600005
10500013010,13,حي الدواسر,Ad Dawasir Dist.,26.445484652000147,50.102391822500195
10500013011,13,حي العنود,Al Anud Dist.,26.4472362830001,50.0721380965001
10500013012,13,حي الشاطئ الغربي,Ash Shati Al Gharbi Dist.,26.47595145650005,50.1208688020001
10500013013,13,حي الضباب,Ad Dabab Dist.,26.42209328300015,50.05410761150005
10500013014,13,حي المنار,Al Manar Dist.,26.376196116000052,50.04182410550015
10500013015,13,حي النور,An Nur Dist.,26.4296783005002,50.02572309000006
10500013016,13,حي السلام,As Salam Dist.,26.4527050165001,50.1026108440001
10500013017,13,حي الزهور,Az Zuhur Dist.,26.453932130000048,50.0890558160002
10500013018,13,حي المريكبات,Al Muraikabat Dist.,26.4121077370001,50.1002463560002
10500013019,13,حي النهضة,An Nahdah Dist.,26.377989005000103,50.1407000560001
10500013020,13,حي ضاحية الملك فهد,Dahiyat Al Malik Fahd Dist.,26.4206656685,49.99465087900005
10500013021,13,حي السيف,As Saif Dist.,26.3905661315001,50.2116978360001
10500013022,13,حي الصناعية,As Sinaiyah Dist.,26.4505217830001,50.0240117200001
10500013023,13,حي احد,Uhud Dist.,26.4136059725,50.04322591750015
10500013024,13,حي بدر,Badr Dist.,26.402990242500103,50.02748236900005
10500013025,13,حي الخليج,Al Khalij Dist.,26.4462408925001,50.088559230500096
10500013026,13,حي الروضة,Ar Rawdah Dist.,26.40101751250005,50.08133036150005
10500013027,13,حي طيبة,Taibah Dist.,26.357029130500152,50.0510530432921
10500013028,13,حي الجامعيين,Al Jamiyin Dist.,26.3930503005001,50.09692070736075
10500013029,13,حي الريان,Ar Rayyan Dist.,26.40515286100015,50.093197451000094
10500013030,13,حي القادسية,Al Qadisiyah Dist.,26.41841057100005,50.0694060185001
10500013031,13,حي غرناطة,Ghirnatah Dist.,26.4245213865,50.0796023960001
10500013032,13,حي العدامة,Al Adamah Dist.,26.4316370990001,50.1021907250002
10500013033,13,حي الامير محمد بن سعود,Prince Muhammed Ibn Saud Dist.,26.4318024520001,50.11290842550005
10500013034,13,حي الطبيشي,At Tubayshi Dist.,26.432815568000102,50.1243064060001
10500013035,13,حي المزروعية,Al Mazruiyah Dist.,26.443172250000103,50.124951845000055
10500013036,13,حي الصفا,As Safa Dist.,26.3880444610001,50.18526077750015
10500013037,13,حي المنتزه,Al Muntazah Dist.,26.37710338950005,50.13039270650005
10500013038,13,حي النزهة,An Nuzhah Dist.,26.3931854600001,50.11140920150015
10500013039,13,حي الفردوس,Al Firdaws Dist.,26.3821850920001,50.11733299150015
10500013040,13,حي قصر الخليج,Qasr Al Khalij Dist.,26.3634244885001,50.1354188455001
10500013041,13,المدينة الصناعية الثانية,2nd Industrial City,26.24822005550015,49.984084967500095
10500013042,13,مطار الملك فهد الدولي,King Fahd International Airport,26.475410942500147,49.834660597000095
10500013043,13,حي الخضرية,Al Kuthriah Dist.,26.45160771900015,50.0439321325001
10500013044,13,حي مدينة العمال,Madinat Al Ummal Dist.,26.4222955490002,50.10779078400005
10500013045,13,حي العمامرة,Al Amamrah Dist.,26.44440531400005,50.11290542950015
10500013046,13,حي البديع,Al Badi Dist.,26.4512109960001,50.11397781300015
10500013047,13,حي الشاطئ الشرقي,Ash Shati Ash Sharqi Dist.,26.4743624985001,50.126978333000096
10500013048,13,حي الفيحاء,Al Fayha Dist.,26.440145172,50.039591718000096
10500013049,13,حي الشفاء,Ash Shifa Dist.,26.4091727060001,50.119156895000145
10500013050,13,حي الراكة الشمالية,Ar Rakah Ash Shamaliyah Dist.,26.3695066120001,50.191810539500096
10500013051,13,حي النورس,An Nawras Dist.,26.4237550490001,50.19439135300005
10500013052,13,حي الفيصلية,Al Faisaliyah Dist.,26.3924823710001,50.0622269295001
10500013053,13,حي الاتصالات,Al Itisalat Dist.,26.413801945500097,50.0866689240001
10500013054,13,حي ابن خلدون,Ibn Khaldun Dist.,26.422794062500152,50.09690568300015
10500013055,13,حي السوق,As Suq Dist.,26.440950061000052,50.10218710050015
10500013056,13,حي الربيع,Ar Rabie Dist.,26.4403875730002,50.1128904980001
10500013057,13,حي الحمراء,Al Hamra Dist.,26.469898357000048,50.091492273500094
10500013058,13,حي البحيرة,Al Buhayrah Dist.,26.46844231550015,50.065562366500046
10500013059,13,حي الجوهرة,Al Jawharah Dist.,26.46706639,50.0764000925001
10500013060,13,حي الرابية,Ar Rabiyah Dist.,26.46311574050015,50.03310372300015
10500013061,13,حي الدانة,Ad Danah Dist.,26.4660122880001,50.04295577400015
10500013062,13,حي المحمدية,Al Muhammadiyah Dist.,26.45586192100005,50.05575577300015
10500013063,13,حي العزيزية,Al Aziziyah Dist.,26.45717732400005,50.071196217500045
10500013064,13,حي الواحة,Al Wahah Dist.,26.37979489600005,50.093133387500146
10500013065,13,حي البساتين,Al Basatin Dist.,26.398680686000098,50.124799231000154
10500013066,13,حي الاسكان,Al Iskan Dist.,26.4150134570001,50.122689333000096
10500013067,13,حي الصدفة,As Sadafah Dist.,26.3747380720002,50.21955154650005
10500013068,13,مدينة الملك فيصل الجامعية,King Faisal University,26.400917091500197,50.2038773910001
10500013069,13,حي الحسام,Al Hussam Dist.,26.3913520590001,50.17280043550005
10500013070,13,حي ميناء الملك عبدالعزيز,King Abdul Aziz Seaport Dist.,26.468719622500053,50.19063569250015
10500013071,13,حي النسيم,Al Naseem Dist.,26.46223016050005,50.16280506850015
10500013072,13,حي الخالدية الجنوبية,Al Khalidiyah Al Janubiyah Dist.,26.4014373810001,50.16217715300005
10500013073,13,حي الشعلة,Ash Shulah Dist.,26.3403833171187,50.070821940500096
10500013074,13,حي الأنوار,Al Anwar Dist.,26.3654996785001,50.00910899500015
10500013075,13,حي الأمل,Al Amal Dist.,26.3439133120001,50.021250527000106
10500013076,13,حي الشرق,Ash Sharq Dist.,26.3646973380001,49.9685675930002
10500013077,13,حي الهضبة,Al Hadabah Dist.,26.3453222775001,49.9378345315001
10500013078,13,حي المطار,Al Matar Dist.,26.3835130337287,49.94113884699895
10500013079,13,حي الأمانة,Al Amanah Dist.,26.38313574100005,49.96768533950015
10500013080,13,حي الفرسان,Al Fursan Dist.,26.356537776500097,49.9636640560001
10500013081,13,حي المها,Al Maha Dist.,26.48547893000005,49.933540378000046
10500013082,13,حي الندى,An Nada Dist.,26.37592906860565,50.07630777827305
10500013083,13,المدينة الصناعية الثالثة,3rd Industrial City,25.93566597300025,49.95916566198895
10300014001,14,حي خاخ,Khakh Dist.,24.362775577500102,39.54093387150015
10300014002,14,حي السكب,As Sakb Dist.,24.3592944560001,39.57857300350015
10300014003,14,حي الجصة,Al Jassah Dist.,24.3609858920002,39.61455523400005
10300014004,14,حي رهط,Raht Dist.,24.369697688000052,39.6405235310001
10300014005,14,حي بني بياضة,Bani Bayadah Dist.,24.381759696500097,39.5908595905001
10300014006,14,حي نبلاء,Nubala Dist.,24.380046519500148,39.66194996100015
10300014007,14,حي الشهباء,Ash Shahba Dist.,24.39268933400005,39.55185228250015
10300014008,14,حي الرمانة,Ar Rumanah Dist.,24.3937074275001,39.67847727250005
10300014009,14,حي ابو كبير,Abu Kabir Dist.,24.392717467000097,39.53560653400015
10300014010,14,حي الغراء,Al Gharra Dist.,24.4057423235001,39.667971034500155
10300014011,14,حي السد,As Sad Dist.,24.40574610650005,39.63909327600005
10300014012,14,حي الجابرة,Al Jabirah Dist.,24.4077715220001,39.5847003515001
10300014013,14,حي الرانوناء,Ar Ranuna Dist.,24.3977717940002,39.6017683135001
10300014014,14,حي الحديقة,Al Hadiqah Dist.,24.416649914,39.609578279000104
10300014015,14,حي ابو بريقاء,Abu Burayqa Dist.,24.41904634000005,39.562918794000055
10300014016,14,حي الروابي,Ar Rawabi Dist.,24.41656390550005,39.6582618625
10300014017,14,حي القصواء,Al Qaswa Dist.,24.4293224165001,39.59028693750005
10300014018,14,حي العصبة,Al Usbah Dist.,24.430287390500098,39.61065504850005
10300014019,14,حي الخاتم,Al Khatim Dist.,24.43090737450015,39.62526805250015
10300014020,14,حي العزيزية,Al Aziziyah Dist.,24.4182821900002,39.5003602335001
10300014021,14,حي العهن,Al Ihn Dist.,24.432565033500047,39.63848889050015
10300014022,14,حي ذو الحليفة,Dhu Al Hulayfah Dist.,24.4287560950001,39.56023300200005
10300014023,14,حي مهزور,Mahzur Dist.,24.4406162015001,39.6503061640001
10300014024,14,حي الدويمة,Ad Duwaimah Dist.,24.4453511355001,39.60903934000015
10300014025,14,حي مذينب,Mudhainib Dist.,24.435520936000103,39.670718708500104
10300014026,14,حي عين الخيف,Ayn Al Khif Dist.,24.432811432500102,39.68492775350005
10300014027,14,حي عروة,Urwah Dist.,24.443109044500147,39.587289221000105
10300014028,14,حي الظاهرة,Az Zahirah Dist.,24.44696765850005,39.5999254670001
10300014029,14,حي الشريبات,Ash Shuraybat Dist.,24.45042027900005,39.63798601200015
10300014030,14,حي ام خالد,Umm Khalid Dist.,24.4319453460001,39.539504113000106
10300014031,14,حي الجمعة,Al Jumah Dist.,24.4515609780001,39.615971102000046
10300014032,14,حي المغيسلة,Al Mughaisilah Dist.,24.45660229300005,39.60375845850005
10300014033,14,حي قربان,Qurban Dist.,24.45273092950005,39.620924719500096
10300014034,14,حي الدفاع,Ad Difa Dist.,24.44435677150005,39.52203086100005
10300014035,14,حي السكة الحديد,As Sikkah Al Hadid Dist.,24.4507302085001,39.482720898500105
10300014036,14,حي الوبرة,Al Wabra Dist.,24.459330951000048,39.58350652100005
10300014037,14,حي الاصيفرين,Al Usayfirin Dist.,24.46039319650005,39.589696374
10300014038,14,حي النقاء,An Naqa Dist.,24.4652477845002,39.60473898750005
10300014039,14,حي بني ظفر,Bani Zafar Dist.,24.45928824700015,39.62943902450005
10300014040,14,حي الاسكان,Al Iskan Dist.,24.45784039050005,39.64698731050015
10300014041,14,حي الخالدية,Al Khalidiyah Dist.,24.4604199525002,39.658638838499996
10300014042,14,حي الجماوات,Al Jamawat Dist.,24.46655550550015,39.5620710500001
10300014043,14,حي المناخة,Al Manakhah Dist.,24.4705520770002,39.6046879310002
10300014044,14,حي بضاعة,Badaah Dist.,24.4724781460001,39.609707442499996
10300014045,14,حي جشم,Josham Dist.,24.4631088070002,39.67957396400015
10300014046,14,حي الهدراء,Al Hadra Dist.,24.44026115943865,39.69616418408445
10300014047,14,حي السيح,As Sih Dist.,24.472286745000098,39.5971215410001
10300014048,14,حي المصانع,Al Masani Dist.,24.47973539300005,39.609361910500155
10300014049,14,حي القبلتين,Al Qiblatayn Dist.,24.478183933500098,39.57612322250005
10300014050,14,حي السلام,As Salam Dist.,24.47501939700015,39.526580617
10300014052,14,حي المبعوث,Al Mabuth Dist.,24.48426496100015,39.674732589500096
10300014053,14,حي الجامعة,Al Jamiah Dist.,24.4836013810001,39.563239265500044
10300014054,14,حي بني حارثة,Bani Harithah Dist.,24.49040960000005,39.628494616000154
10300014055,14,حي بئر عثمان,Bir Uthman Dist.,24.49442466700015,39.58201951600015
10300014056,14,حي شظاة,Shizat Dist.,24.49565730950005,39.6541351060001
10300014057,14,حي طيبة,Taibah Dist.,24.49445122050015,39.53024254100005
10300014058,14,حي القلعة,Al Qalah Dist.,24.50833611200005,39.654312117000046
10300014059,14,حي الملك فهد,King Fahd Dist.,24.5019524295001,39.690980887500146
10300014061,14,حي البركة,Al Barakah Dist.,24.517299260500103,39.5716577490001
10300014062,14,حي العيون,Al Uyun Dist.,24.51992343250015,39.590873447
10300014063,14,حي الدار,Ad Dar Dist.,24.53142582850005,39.6354354495001
10300014064,14,حي النخيل,Al Nakhil Dist.,24.524676175500097,39.5501351000001
10300014065,14,حي الزهرة,Az Zahrah Dist.,24.53231528150015,39.566893629000106
10300014066,14,حي الحفيا,Al Hafya Dist.,24.53892259850005,39.51407361900015
10300014067,14,حي البلقاء,Al Balqa Dist.,24.540739840999997,39.45160145150005
10300014068,14,حي كتانة,Kittanah Dist.,24.5537542255001,39.556005837499995
10300014069,14,حي الصادقية,As Sadiqiyah Dist.,24.5579303495001,39.58075568850015
10300014070,14,حي الغابة,Al Ghabah Dist.,24.560755784,39.605664604000054
10300014071,14,حي النقس,An Naqs Dist.,24.55955587000005,39.6424871620001
10300014072,14,حي وعيرة,Wairah Dist.,24.54910357400015,39.666898784000054
10300014073,14,حي المطار,Al Matar Dist.,24.56693727050005,39.675221765000146
10300014074,14,حي العريض,Al Ariyd Dist.,24.4816424240001,39.645112486500054
10300014075,14,حي العنابس,Al Anabis Dist.,24.47392402700015,39.58723997300015
10300014076,14,حي الفتح,Al Fath Dist.,24.478654609500047,39.594809271000045
10300014077,14,حي الراية,Ar Rayah Dist.,24.48580321900005,39.5963523505001
10300014078,14,حي مسجد الدرع,Masjid Ad Dar Dist.,24.491829467000052,39.60922240250005
10300014079,14,حي السقيا,As Suqya Dist.,24.46231598150015,39.59742650550005
10300014080,14,حي قلعة مخيط,Qalat Makhit Dist.,24.50658003050015,39.4929280380001
10300014083,14,حي الشافية,Ash Shafiyah Dist.,24.5379426940001,39.6410862055001
10300014084,14,حي سيد الشهداء,Sayed Ash Shuhada Dist.,24.5158429740001,39.6099742665001
10300014085,14,حي جبل احد,Jabal Uhud Dist.,24.52166483600015,39.6230669895001
10300014086,14,حي بني خدرة,Bani Khidrah Dist.,24.4643235170001,39.61240962350005
10300014087,14,حي بني عبدالاشهل,Bani Abdul Ashhal Dist.,24.47896567150015,39.6212964185
10300014088,14,حي بني معاوية,Bani Muawiyah Dist.,24.4747188805001,39.62613451950015
10300014089,14,حي الحرم,Al Haram Dist.,24.46888214950005,39.6124609045001
10300014090,14,حي ورقان,Warqan Dist.,24.37945012400015,39.5194985180001
10300014091,14,حي شوران,Shuran Dist.,24.39449996350015,39.62456272200015
10300014092,14,المنطقة الصناعية,Industrial Area,24.378740576000098,39.486164889500145
10300014093,14,حي الدويخلة,Ad Duwaikhilah Dist.,24.50581953225015,39.67449190400015
10300014094,14,حي العاقول,Al Aqoul Dist.,24.5151219873844,39.72132306044635
10300014095,14,حي وادي البطان,Wadi Al Battan Dist.,24.52462457964745,39.80400400458964
10600015001,15,حي المنهل,Al Manhal Dist.,18.2243890795001,42.51458930450015
10600015002,15,حي النصب,An Nasb Dist.,18.22025012900005,42.50703048450005
10600015003,15,وسط المدينة,City Center,18.21739387050005,42.5002746605001
10600015004,15,حي النزهة,An Nuzhah Dist.,18.210679058500048,42.51226997550005
10600015005,15,حي ذرة,Dhurah Dist.,18.206337928000103,42.5081386520001
10600015006,15,حي شمسان,Shamsan Dist.,18.2278461450002,42.5080547340001
10600015007,15,حي القرى,Al Qura Dist.,18.2427232180001,42.48858070400015
10600015008,15,حي الوردتين,Al Wardatain Dist.,18.228721617000097,42.495059964999996
10600015009,15,حي الربوة,Ar Rabwah Dist.,18.2050209050001,42.52670552400005
10600015010,15,حي النسيم,Al Naseem Dist.,18.2012319575001,42.54194641250015
10600015011,15,حي الاندلس,Al Andalus Dist.,18.21223258850015,42.51859474550005
10600015012,15,حي ابها الجديدة,Abha Al Jadidah Dist.,18.21344880550015,42.47887420750005
10600015013,15,حي الضباب,Ad Dabab Dist.,18.19731130550015,42.510607808000145
10600015014,15,حي الوصايف,Al Wasaif Dist.,18.2334718735001,42.485025401500096
10600015015,15,حي الشرفية,Ash Sharafiyah Dist.,18.2428903630001,42.5161431135002
10600015016,15,حي العزيزية,Al Aziziyah Dist.,18.21085452600005,42.50104332150015
10600015017,15,حي الشفاء,Ash Shifa Dist.,18.2062444635001,42.4980564155001
10600015018,15,حي المفتاحة,Al Muftahah Dist.,18.21121501800015,42.4942760480001
10600015019,15,حي السروات,As Sarawat Dist.,18.198366038500097,42.48821328750005
10600015020,15,حي المروج,Al Muruj Dist.,18.2183748533519,42.54582516771385
10600015021,15,حي السد,As Sadd Dist.,18.21674823800015,42.492927547500145
10600015022,15,حي الخشع,Al Khasha Dist.,18.2137813535001,42.505342482000145
10600015023,15,حي القابل,Al Qabil Dist.,18.22395801100005,42.4974269835001
10600015024,15,حي الفيصلية,Al Faisaliyah Dist.,18.22139358500005,42.4929733275002
10600015025,15,حي الخالدية,Al Khalidiyah Dist.,18.2269077320001,42.478271490000196
10600015026,15,حي العرين,Al Arin Dist.,18.232985497500103,42.54000091450005
10600015027,15,حي البديع,Al Badi Dist.,18.217124603654298,42.573813797983945
11000017001,17,حي القلعة,Al Qalah Dist.,16.88198048100005,42.5510501390001
11000017002,17,حي الاراك,Al Arak Dist.,16.86683546450015,42.6400316410001
11000017004,17,حي الصفا,As Safa Dist.,16.88499072850015,42.57176137400005
11000017005,17,حي السويس,As Suways Dist.,16.858773839500053,42.5953851335001
11000017006,17,حي البشائر,Al Bashaer Dist.,16.8617485185001,42.62488078600015
11000017007,17,حي المطار,Airport Dist.,16.90108979767195,42.5781167840001
11000017008,17,حي الروابي,Ar Rawabi Dist.,16.9483795770001,42.58945411200015
11000017009,17,حي الزهور,Az Zuhur Dist.,16.9120572065001,42.6207629130001
11000017010,17,حي الشاطئ,Ash Shati Dist.,16.9421100582739,42.5524468824904
11000017011,17,حي الروضة,Ar Rawdah Dist.,16.911053369500152,42.5812732045001
11000017012,17,حي الشامية,Ash Shamiyah Dist.,16.894430421499997,42.5456527030001
11000017013,17,المنطقة الصناعية,Industrial Area,16.8505073405001,42.597539606000055
11000017014,17,حي النور,An Nur Dist.,16.94784064300015,42.63299175950014
11000017015,17,حي النسيم,Al Naseem Dist.,16.90444604700015,42.593622508500104
11000017016,17,حي الجبل,Al Jabal Dist.,16.89308459850005,42.5527046320002
11000017017,17,حي مزهرة,Mizhirah Dist.,16.8265486479767,42.7344392814601
10200018001,18,حي الزمرد,Az Zomorod Dist.,21.79489308000015,39.054809184500144
10200018002,18,حي اللؤلؤ,Al Loaloa Dist.,21.7673738750001,39.06235395750009
10200018003,18,حي الياقوت,Al Yaqoot Dist.,21.782925088000148,39.07971389950005
10200018004,18,حي الصوارى,As Swaryee Dist.,21.7961455025001,39.09878616650015
10200018005,18,حي الامواج,Al Amwaj Dist.,21.7486811595001,39.07315168000015
10200018006,18,حي الشراع,Ash Sheraa Dist.,21.76489627650005,39.0947828925
10200018007,18,حي الفردوس,Al Ferdous Dist.,21.78122630100005,39.1187247180001
10200018008,18,حي الفلاح,Al Falah Dist.,21.7817877895001,39.18688447550015
10200018009,18,حي الاصالة,Al Asalah Dist.,21.77683223500015,39.1542899495001
10200018010,18,حي مريخ,Mraykh Dist.,21.5349815475001,39.29247685400015
10200018011,18,حي الشروق,Ash Shrouk Dist.,21.56105151100015,39.280233878500056
10200018012,18,حي الامير فواز الشمالى,Al Amir Fawaz Ash Shamaly Dist.,21.4347429570001,39.2999474845001
10200018013,18,حي الرياض,Ar Riyadh Dist.,21.85920892350005,39.18469675050015
10200018014,18,حي الفروسية,Al Frosyah Dist.,21.82784891300005,39.2052425335001
10200018015,18,حي الرحمانية,Ar Rahmanyah Dist.,21.79341732500005,39.2167853390001
10200018016,18,حي الصالحية,As Salhiyah Dist.,21.7628075229159,39.223952902500145
10200018017,18,حي الحمدانية,Al Hamadaniyah Dist.,21.75573977700015,39.1926920480001
10200018018,18,حي الريان,Ar Rayaan Dist.,21.6831913035,39.211374382000145
10200018019,18,حي ام حبلين,Um Hableen Dist.,21.714821689500198,39.24159982450005
10200018020,18,حي بريمان,Bryman Dist.,21.6482086140001,39.24506241750015
10200018021,18,حي المنتزة,Al Montazah Dist.,21.59764355250005,39.2807700140001
10200018022,18,حي الثعالبة,Ath Thaalibah Dist.,21.46461788350005,39.18561037150015
10200018023,18,حي البلد,Al Balad Dist.,21.48466089100005,39.187921835000154
10200018024,18,حي الفاروق,Al Farouk Dist.,21.45087552400005,39.269028271500204
10200018025,18,حي العدل,Al Adel Dist.,21.4443801125001,39.2921301505001
10200018026,18,حي الهنداوية,Al Hindawiyah Dist.,21.4734959505002,39.187454749
10200018027,18,حي المحجر,Al Mahjar Dist.,21.428494191000098,39.20309683950015
10200018028,18,حي النهضة,An Nahdah Dist.,21.6192451060001,39.1271037115
10200018029,18,حي الخالدية,Al Khalidiyah Dist.,21.560766086500102,39.134199090500104
10200018030,18,جامعة الملك عبدالعزيز,King Abdulaziz University,21.493226122000102,39.24676325100015
10200018031,18,حي النخيل,Al Nakhil Dist.,21.52952153,39.2615886805001
10200018032,18,حي البغدادية الشرقية,Al Baghdadiyah Ash Sharqiyah Dist.,21.49732627100005,39.19355605500015
10200018033,18,حي النزلة الشرقية,An Nazlah Ash Sharqiyah Dist.,21.4714393235002,39.22087320450015
10200018034,18,حي البوادي,Al Bawadi Dist.,21.598554425500147,39.1661571100001
10200018035,18,حي السلامة,As Salamah Dist.,21.594341591000052,39.1531360850001
10200018036,18,حي الثغر,Ath Thaghr Dist.,21.478994153000052,39.2254485200001
10200018037,18,حي الشرفية,Ash Sharafiyah Dist.,21.5167327865002,39.18642483250015
10200018038,18,قاعدة الملك فيصل البحرية,King Faisal Naval Base,21.3701599320002,39.1619916125001
10200018039,18,حي الشفا,Ash Shefaa Dist.,21.3825140485001,39.331560018000005
10200018040,18,حي السنابل,As Sanabel Dist.,21.3920555625001,39.27518534300005
10200018041,18,حي الهدى,Al Hada Dist.,21.3730412715565,39.30347983932445
10200018042,18,حي التضامن,Al Tadamun Dist.,21.34752549550005,39.308703055500146
10200018043,18,حي الكرامة,Al Karamah Dist.,21.30499560600005,39.31466906350015
10200018044,18,حي الرحمة,Ar Rahmah Dist.,21.2650710360001,39.31073377450015
10200018045,18,حي البركة,Al Barakah Dist.,21.264947209000148,39.27941004650005
10200018046,18,حي المسرة,Al Masarah Dist.,21.264814981500102,39.24801711400005
10200018047,18,حي المليساء,Al Moulysaa Dist.,21.264617200000153,39.21255595350005
10200018048,18,حي القوزين,Al Qouzeen Dist.,21.26425154100015,39.16508213900005
10200018049,18,حي الوادي,Al Wadi Dist.,21.3087593515001,39.1722917065
10200018050,18,حي الفضيلة,Al Fadeylah Dist.,21.30724329450005,39.2787486620001
10200018051,18,حي التعاون,At Taawun Dist.,21.3506862675,39.269421308000105
10200018052,18,حي السروات,As Sarawat Dist.,21.351681513000102,39.2141062500001
10200018053,18,حي الخمرة,Al Khomrah Dist.,21.3519096725001,39.2439859160001
10200018054,18,حي الضاحية,Ad Dahiah Dist.,21.3080045360001,39.2118938400001
10200018055,18,حي القرينية,Al Qryniah Dist.,21.306743610000098,39.2466676950001
10200018056,18,حي النزلة اليمانية,An Nazlah Al Yamaniyah Dist.,21.4700601885001,39.2102868410001
10200018057,18,حي النسيم,Al Naseem Dist.,21.5206320565,39.23102073050015
10200018058,18,حي القريات,Al Quraiyat Dist.,21.4661679405001,39.1998202835001
10200018059,18,حي غليل,Ghulail Dist.,21.45197677400005,39.20719888400015
10200018060,18,حي الكندرة,Al Kandarah Dist.,21.4930061005001,39.20166786850015
10200018061,18,حي العمارية,Al Ammariyah Dist.,21.49207162250015,39.193549147000056
10200018062,18,حي الصحيفة,As Sahifah Dist.,21.4880786340001,39.19490576650005
10200018063,18,حي السبيل,As Sabil Dist.,21.479936670500052,39.2013219235001
10200018064,18,حي الروضة,Ar Rawdah Dist.,21.5646293415001,39.15810868650005
10200018065,18,حي بنى مالك,Bani Malik Dist.,21.5333633590001,39.2166159470002
10200018066,18,حي الفيصلية,Al Faisaliyah Dist.,21.571574161500052,39.1836187600002
10200018067,18,حي الرحاب,Al Rehab Dist.,21.5523532290001,39.225052902000044
10200018068,18,حي العزيزية,Al Aziziyah Dist.,21.552957318500148,39.19441031250015
10200018069,18,حي مشرفة,Mishrifah Dist.,21.53909268450015,39.197240161000096
10200018070,18,حي الورود,Al Wurud Dist.,21.5188427765001,39.2048324310001
10200018071,18,حي الواحة,Al Wahah Dist.,21.5567490325001,39.24428661700015
10200018072,18,حي ابرق الرغامة,Abruq Ar Rughamah Dist.,21.5020961850001,39.2866451955836
10200018073,18,حي السليمانية,As Sulaymaniyah Dist.,21.507045537,39.2496224145001
10200018074,18,حي الساحل,As Sahil Dist.,21.2929118825001,39.1289328955001
10200018075,18,حي البشائر,Al Bashaer Dist.,21.806157646000102,39.17626057450015
10200018076,18,حي المحمدية,Al Muhammadiyah Dist.,21.649860981000103,39.12735567600015
10200018077,18,حي الكوثر,Al Kawthar Dist.,21.7270185647649,39.20541041100015
10200018078,18,حي طيبة,Taibah Dist.,21.8060408710001,39.1373639620001
10200018079,18,حي النعيم,An Naim Dist.,21.627799268500098,39.14290291350015
10200018080,18,حي البساتين,Al Basatin Dist.,21.686894883500152,39.1176771880001
10200018081,18,حي الربوة,Ar Rabwah Dist.,21.5996568820001,39.18258245600005
10200018082,18,حي النزهة,An Nuzhah Dist.,21.626020702000098,39.1682880070001
10200018083,18,حي الصفا,As Safa Dist.,21.5852697435001,39.211562200000145
10200018084,18,حي المروة,Al Marwah Dist.,21.61770927550005,39.2015349065001
10200018085,18,حي السامر,As Samir Dist.,21.5822241655001,39.2468823185001
10200018086,18,حي الاجواد,Al Ajwad Dist.,21.6019577280001,39.2571070155001
10200018087,18,مطار الملك عبدالعزيز الدولي,King Abdulaziz International Airport,21.70273688900005,39.1626042315001
10200018088,18,حي المنار,Al Manar Dist.,21.6023338230001,39.235369216500146
10200018089,18,المنطقة الصناعية,Industrial Area,21.401591955,39.2351824045001
10200018090,18,حي الامير عبدالمجيد,Prince Abdul Majeed Dist.,21.42326833000015,39.27452227900005
10200018091,18,حي الوزيريه,Al Waziriyah Dist.,21.443652230000147,39.23294437200015
10200018092,18,حي الجوهرة,Al Jawharah Dist.,21.4290394175001,39.250714447500044
10200018093,18,حي الامير فواز الجنوبى,Al Amir Fawaz Al Janouby Dist.,21.4308161965001,39.29060352750015
10200018094,18,حي المتنزهات,Al Mutanazahat Dist.,21.4677129855001,39.2887739135001
10200018095,18,حي الجامعة,Al Jamiah Dist.,21.473975377000052,39.2499556490001
10200018096,18,حي الروابي,Ar Rawabi Dist.,21.47063004050015,39.269616479500044
10200018097,18,حي الفضل,Al Fadel Dist.,21.4325090525001,39.3263237420001
10200018098,18,حي ام السلم,Um Asalam Dist.,21.45367920037405,39.34703264941915
10200018099,18,مدينة الملك عبدالعزيز الطبية,King Abdulaziz Medical City,21.42055785000005,39.364063561500046
10200018100,18,حي البغدادية الغربية,Al Baghdadiyah Al Gharbiyah Dist.,21.4985924630001,39.175095228500055
10200018101,18,حي ابحر الشمالية,Abhur Ash Shamaliyah Dist.,21.74544326150015,39.1076779450001
10200018102,18,حي الرويس,Ar Ruwais Dist.,21.514111077000102,39.17061301650005
10200018103,18,حي بترومين,Petromin Dist.,21.444655988500102,39.179122250000106
10200018104,18,حي الاندلس,Al Andalus Dist.,21.53132780800005,39.1442806205001
10200018105,18,حي ابحر الجنوبية,Abhur Al Janubiyah Dist.,21.7359954775001,39.123201829500005
10200018106,18,حي المرجان,Al Murjan Dist.,21.685382087500102,39.098255653500146
10200018107,18,حي السرورية,As Sororyah Dist.,21.3935815890002,39.2135189555001
10200018108,18,حي الاجاويد,Al Ajaweed Dist.,21.40067864650005,39.307475914500145
10200018109,18,حي الشاطئ,Ash Shati Dist.,21.60465019350015,39.11287728600005
10200018110,18,حي مدائن الفهد,Madain Al Fahd Dist.,21.461906303,39.2384166550001
10200018111,18,حي الزهراء,Az Zahra Dist.,21.59151820600005,39.1325191705001
10200018112,18,حي الحمراء,Al Hamra Dist.,21.5253293785001,39.164478127500146
10200018113,18,حي الفيحاء,Al Fayha Dist.,21.4969366955001,39.21630942100005
10200018114,18,حي بحرة,Bahrah Dist.,21.4090048145001,39.46784511600005
10200018115,18,ميناء جدة الاسلامي,Jeddah Eslamic Seaport,21.469165055000047,39.16369635800005
10200018116,18,حي الوفاء,Al Wafa Dist.,21.84568425480905,39.2342462324883
10200018117,18,حي الحرازات,Al Harazat Dist.,21.4959840980053,39.3648936293214
10200018118,18,حي المحاميد,Al Mahamid Dist.,21.44995548490185,39.40196986002895
10200018119,18,المدينة الصناعية الثالثة,Third Industrial City,21.12542580169145,39.3218598472643
10100024001,24,حي المرقب,Al Marqab Dist.,25.906549041000098,45.336904664431145
10100024002,24,حي اليرموك,Al Yarmuk Dist.,25.9174117845001,45.3584744825001
10100024003,24,حي الفيحاء,Al Fayha Dist.,25.90424307050015,45.352109099000046
10100024004,24,حي الملك فهد,King Fahd Dist.,25.90004366000005,45.3446223280001
10100024005,24,حي الملك سلمان,King Salman Dist.,25.890666467500047,45.3612929470001
10100024006,24,حي الملك عبدالعزيز,King Abdulaziz Dist.,25.905791591500048,45.3631222240001
10100024007,24,حي الاندلس,Al Andalus Dist.,25.920855763000148,45.372147539000096
10100024008,24,حي المطار,Al Matar Dist.,25.9162260400002,45.3811113960001
10100024009,24,حي الملك عبدالله,King Abdullah Dist.,25.90929025438555,45.38946202029605
10100024011,24,المنطقة الصناعية,Industrial Area,25.8761802655658,45.39442741385875
10100024012,24,حي الجامعيين,Al Jamiyin Dist.,25.90464107500025,45.3738087245002
10100024013,24,حي المروج,Al Muruj Dist.,25.89923951700005,45.367513233000054
10100024014,24,حي المستقبل,Al Mustaqbal Dist.,25.905401835243403,45.405411140271994
10500031001,31,حي التحلية,At Tahliyah Dist.,26.17639770050015,50.19669760950005
10500031002,31,حي ابن سيناء,Ibn Sina Dist.,26.2423399180001,50.20435019824855
10500031003,31,حي الحزام الاخضر,Al Hizam Al Akhdar Dist.,26.30789879850015,50.200580433000056
10500031004,31,حي صناعية الثقبة,Sinaiyah Ath Thuqbah Dist.,26.2563866385001,50.19807160000015
10500031005,31,حي التعاون,At Taawun Dist.,26.2282603585001,50.1842738590001
10500031006,31,حي الراكة الجنوبية,Ar Rakah Al Janubiyah Dist.,26.3516868760001,50.199858680000204
10500031007,31,حي الخبر الشمالية,Al Khubar Ash Shamaliyah Dist.,26.29089435650015,50.21350794250015
10500031008,31,حي مدينة العمال,Madinat Al Ummal Dist.,26.29281401300015,50.203668574500156
10500031009,31,حي العقربية,Al Aqrabiyah Dist.,26.295253874000103,50.192616163000096
10500031010,31,حي الخبر الجنوبية,Al Khubar Al Janubiyah Dist.,26.2736137055001,50.20745637000015
10500031011,31,حي الروابي,Ar Rawabi Dist.,26.33201798400005,50.20730716800005
10500031012,31,حي اليرموك,Al Yarmok Dist.,26.31180601300005,50.2197981505001
10500031013,31,حي قرطبة,Qurtubah Dist.,26.34345363400015,50.18932656700005
10500031014,31,حي الجوهرة,Al Jawharah Dist.,26.329218547500147,50.197089301000204
10500031015,31,حي الحزام الذهبي,Al Hizam Adh Dhahabi Dist.,26.31750380400015,50.200556421000044
10500031016,31,حي الاندلس,Al Andalus Dist.,26.3237220225001,50.1853282645001
10500031017,31,حي الهدا,Al Hada Dist.,26.31045704150015,50.183639089000096
10500031018,31,حي البندرية,Al Bandariyah Dist.,26.3095604585001,50.21369817600015
10500031019,31,حي البستان,Al Bustan Dist.,26.3219710710001,50.2113353940001
10500031020,31,حي الثقبة,Ath Thuqbah Dist.,26.274457619500097,50.1905847485001
10500031021,31,حي العليا,Al Olaya Dist.,26.29724451100015,50.17727921650015
10500031022,31,حي الاسكان,Al Iskan Dist.,26.25815311200015,50.2091433865001
10500031023,31,حي الحمراء,Al Hamra Dist.,26.2267341510001,50.20421824450005
10500031024,31,حي الجسر,Al Jisr Dist.,26.21020852800015,50.20456040200005
10500031025,31,حي الخزامى,Al Khuzama Dist.,26.2066299725001,50.1847111944235
10500031026,31,المدينة الرياضية,Sports City,26.359663057000148,50.1843531835001
10500031027,31,حي البحر,Al Bahar Dist.,26.35257020800005,50.22021479350015
10500031028,31,حي الكورنيش,Al Kurnaish Dist.,26.307802606500047,50.22035719350015
10500031029,31,حي صناعية الفوازية,Sinaiyah Al Fawaziyah Dist.,26.2444164055001,50.21345726300005
10500031030,31,حي الساحل,As Sahil Dist.,26.25858641400005,50.2169682680001
10500031031,31,حي الخور,Al Khawr Dist.,26.2278265725001,50.2170192630001
10500031032,31,حي اشبيليا,Ishbiliya Dist.,26.2003148195001,50.21660578500005
10500031033,31,حي البحيرة,Al Buhayrah Dist.,26.1916670795001,50.181088843
10500031034,31,حي الشراع,Ash Sheraa Dist.,26.164174868500098,50.14768607250005
10500031035,31,حي الكوثر,Al Kawthar Dist.,26.149313206000052,50.11676681200005
10500031036,31,حي الرجاء,Ar Raja Dist.,26.167751311000103,50.1242215230001
10500031037,31,حي الصواري,As Sawari Dist.,26.186193274000097,50.1512350775002
10500031038,31,حي العقيق,Al Aqiq Dist.,26.09614442850005,50.14266495300005
10500031039,31,حي المها,Al Maha Dist.,26.1885567500001,50.1323357340001
10500031040,31,حي الامواج,Al Amwaj Dist.,26.141925833500103,50.1452972060001
10500031041,31,حي اللؤلؤ,Al Lulu Dist.,26.11894402550005,50.1429978255001
10500031042,31,حي المرجان,Al Murjan Dist.,26.11397190750015,50.1135224435002
10500031043,31,حي السفن,As Sufun Dist.,26.1354403210001,50.1666896295001
10700036001,36,حي الظهرة,Adh Dhahrah Dist.,29.28412150300005,34.947104396
10700036002,36,حي اليرموك,Al Yarmuk Dist.,29.27882096650005,34.9522033170001
10700036003,36,حي السبخة,As Sabkhah Dist.,29.2953687635001,34.9438897425001
10700036004,36,حي البلدة القديمة,Al Balda Al Qadimah Dist.,29.296099335500102,34.95184389100015
10700036005,36,حي الريان,Ar Rayyan Dist.,29.28196722153745,34.967266106409596
10700036006,36,حي المروج,Al Muruj Dist.,29.2535361287727,34.9497580595108
10500047001,47,حي الربيع,Ar Rabie Dist.,28.40385558100015,46.0475034930001
10500047002,47,حي الاسكان,Al Iskan Dist.,28.327027003000097,45.9679271695001
10500047003,47,حي الجامعة,Al Jamiah Dist.,28.2387916600001,45.9389527380001
10500047004,47,حي الرابية,Ar Rabiyah Dist.,28.3784527385001,45.9271463150001
10500047005,47,حي التلال,At Talal Dist.,28.44086334000005,45.93744036800005
10500047006,47,حي الشفاء,Ash Shifa Dist.,28.249864952500097,45.92579556650015
10500047007,47,حي الوادي,Al Wadi Dist.,28.3618780990001,45.9733080795001
10500047008,47,حي البلدية,Al Baladiyah Dist.,28.42357865100005,45.981785771000105
10500047009,47,حي الصناعية,As Sinaiyah Dist.,28.43178004250005,46.0394620855001
10500047010,47,حي العزيزية,Al Aziziyah Dist.,28.4453663365001,45.9587928035001
10500047011,47,حي الفيحاء,Al Fayha Dist.,28.451813593500148,46.01876500000015
10500047012,47,حي الربوة,Ar Rabwah Dist.,28.416577432500098,45.944150545000156
10500047013,47,حي الباطن,Al Batin Dist.,28.454061745500148,45.9958374080001
10500047014,47,حي المحمدية,Al Muhammadiyah Dist.,28.3826225090001,45.9770384370001
10500047015,47,حي الخالدية,Al Khalidiyah Dist.,28.420670720000103,45.96275115100015
10500047016,47,حي النهضة,An Nahdah Dist.,28.4372535540001,45.9198484935001
10500047017,47,حي الصفاء,Al Safa Dist.,28.37226130550015,46.00074534650015
10500047018,47,حي فليج,Fulaij Dist.,28.4335356035002,46.0065065820001
10500047019,47,حي قرطبة,Qurtubah Dist.,28.30017875500015,45.9578679695001
10500047020,47,حي الروضة,Ar Rawdah Dist.,28.4486527675001,46.046337160500045
10500047021,47,حي السليمانية,As Sulimaniyah Dist.,28.3977648525001,45.9341937990001
10500047022,47,حي الفيصلية,Al Faisaliyah Dist.,28.393786310000102,45.9571023505001
10500047023,47,حي النزهة,An Nuzhah Dist.,28.415051009000052,45.92574898647635
10500047024,47,حي المنار,Al Manar Dist.,28.32945377300015,45.9555711715001
10500047025,47,حي اليرموك,Al Yarmuk Dist.,28.276773146500098,45.9506934610001
10500047026,47,حي الريان,Ar Rayan Dist.,28.3470435145001,45.951498510500045
10500047027,47,حي النايفية,An Nayfiyah Dist.,28.3668370325001,45.953096374000154
10500047028,47,حي المروج,Al Muruj Dist.,28.392466325500102,45.99307754950015
10500047029,47,حي النخيل,Al Nakhil Dist.,28.35808662150015,45.98904120700015
10500047030,47,حي الواحة,Al Wahah Dist.,28.4033152085001,45.973553270500105
10500047031,47,حي المصيف,Al Masif Dist.,28.406888362000153,45.989141408500146
10500047032,47,حي غرناطة,Ghirnatah Dist.,28.2767426400001,45.940358537500046
10500047033,47,حي ابو موسى الاشعري,Abu Musa Al Ashari Dist.,28.4490137145001,45.9779072365001
10500047034,47,حي الخليج,Al Khalij Dist.,28.439171315000053,46.074691198000096
10500047035,47,حي الرائد,Ar Raid Dist.,28.35646128750015,46.0047387160001
10500047036,47,حي الورود,Al Wurud Dist.,28.3072582970001,45.947093601
10600062001,62,حي الراقي,Al Raqi Dist.,18.3297619135,42.752995236500155
10600062003,62,حي الواحة,Al Wahah Dist.,18.331996125000153,42.69802117800005
10600062004,62,حي السد,As Sad Dist.,18.2930044800001,42.7163204155
10600062005,62,حي الجزيرة,Al Jazirah Dist.,18.3143145195001,42.72139118100005
10600062006,62,حي طيب الاسم,Tayib Al Ism Dist.,18.3161334650001,42.70318038150015
10600062007,62,حي الزهور,Az Zuhur Dist.,18.2937157100001,42.7364099340001
10600062008,62,حي الروضة,Ar Rawdah Dist.,18.2972458125001,42.72836164200015
10600062009,62,حي المنتزه,Al Muntazah Dist.,18.30326275950005,42.72049202950015
10600062010,62,حي ضمك,Damak Dist.,18.28760803400015,42.7273932180001
10600062011,62,حي الخزان,Al Khazzan Dist.,18.2963326320001,42.7224810290001
10600062012,62,حي الخالدية,Al Khalidiyah Dist.,18.30329026785865,42.7267030615001
10600062013,62,حي الفتح,Al Fath Dist.,18.3239166455001,42.7384168810001
10600062014,62,حي النهضة,An Nahdah Dist.,18.32428032000015,42.7426957965001
10600062015,62,حي شباعة,Shubaah Dist.,18.31800399050005,42.723926198500095
10600062016,62,حي المعزاب,Al Mizab Dist.,18.312464021,42.7109692340001
10600062017,62,حي المثناة,Al Mathnah Dist.,18.29188648000015,42.733217116999995
10600062018,62,حي المعمورة,Al Mamurah Dist.,18.327380277000152,42.7235656200001
10600062019,62,حي النسيم,Al Naseem Dist.,18.29194752950005,42.7602240675001
10600062020,62,حي شكر,Shakar Dist.,18.28870934850005,42.748826202000004
10600062021,62,حي النزهة,An Nuzhah Dist.,18.2779867355001,42.7377727005001
10600062022,62,حي عتود,Atud Dist.,18.30208371600005,42.71017187550005
10600062023,62,حي ال هميلة,Al Humaylah Dist.,18.308208503000102,42.7157102625002
10600062024,62,حي العرق الجنوبي,Al Irq Al Janubi Dist.,18.30443987700015,42.734201482000145
10600062025,62,حي الصقور,As Suqur Dist.,18.3021613170001,42.7633068495001
10600062026,62,حي البوادي,Al Bawadi Dist.,18.30093555550015,42.7554835465001
10600062027,62,حي النخيل,Al Nakhil Dist.,18.29821407300015,42.7490664315001
10600062028,62,حي ام سرور,Umm Surur Dist.,18.2953560360001,42.74271007550015
10600062029,62,حي الشرفية,Ash Sharafiyah Dist.,18.3049658455001,42.7443787845001
10600062030,62,حي الربيع,Ar Rabie Dist.,18.312823003000098,42.68981446350015
10600062031,62,حي قمبر,Qambar Dist.,18.310481858000102,42.72420723900005
10600062032,62,حي السلام,As Salam Dist.,18.3076985550001,42.72493858200015
10600062033,62,حي العرق الشمالي,Al Irq Ash Shamali Dist.,18.3114010575001,42.732464448500096
10600062034,62,حي الدوحة,Ad Dawhah Dist.,18.3120121365001,42.74014916800015
10600062035,62,حي العزيزية,Al Aziziyah Dist.,18.313584798500152,42.7508899180001
10600062036,62,حي القافلة,Al Qafilah Dist.,18.3147281940001,42.6954724375001
10600062037,62,مخطط الموسى,Al Musa Subdivision Plan,18.3241936510002,42.765583383500044
10600062038,62,سكن القاعدة الجوية,Airforce Housing,18.27389058400015,42.8088270315001
10600062039,62,حي الرونه,Ar Runah Dist.,18.2412071105001,42.80146943300015
10600062040,62,حي الشفاء,Ash Shifa Dist.,18.2663464725001,42.731131167500195
10600062041,62,حي ذلالة,Dhalalah Dist.,18.2403571900002,42.756843731000046
10600062042,62,حي الرصراص,Ar Rasras Dist.,18.25019406150015,42.77370723850005
10600062043,62,سكن المدينة العسكرية,Military City Housing,18.229028767000003,42.7796909085001
10600062044,62,سكن مجموعة اللواء الرابع عشر,14th Brigade Housing,18.25009703350015,42.84790869850015
10600062045,62,حي الهر ير,Al Harir Dist.,18.2686025905001,42.761014468000056
10600065001,65,حي الخالدية,Al Khalidiyah Dist.,18.169648012500147,42.83197595400005
10600065002,65,حي الزيتون,Az Zaytun Dist.,18.1806515600001,42.8560018295001
10600065003,65,حي العزيزية,Al Aziziyah Dist.,18.172173651500152,42.81659180950015
10600065004,65,حي السلامة,As Salamah Dist.,18.1929568460001,42.8280280420002
10600065005,65,حي النهضة,An Nahdah Dist.,18.18228866000005,42.84551457800005
10600065006,65,حي وسط البلد,Down Town Dist.,18.174672054000148,42.83643019950015
10600065007,65,حي الورود,Al Wurud Dist.,18.1662114395001,42.8491389900001
10600065008,65,حي الزهور,Az Zuhur Dist.,18.15008991250005,42.8440652645001
10600065009,65,حي صفوان,Safwan Dist.,18.2105280325001,42.82000226850015
10600065010,65,حي الصالحية,As Salhiyah Dist.,18.21371756250005,42.837789673000046
10600065011,65,حي المصيف,Al Masif Dist.,18.211627606500052,42.8271991025002
10600065012,65,حي الخليج,Al Khalij Dist.,18.185348295000203,42.8142376480001
10600065013,65,حي الرونه,Ar Runah Dist.,18.22261909850005,42.81942676050015
10600065014,65,المدينة العسكرية,Military City,18.200546523,42.8010211240001
10500067003,67,حي البديع,Al Badia Dist.,26.54755362350005,49.9563077360002
10500067004,67,منطقة المستودعات,Warehouse Area,26.5419448500001,50.018658871777745
10500067005,67,حي المجيدية,Al Majidiyah Dist.,26.542633736000198,50.024009136500155
10500067006,67,حي الشاطئ,Ash Shati Dist.,26.56299299450005,50.044868869
10500067007,67,حي الفتح,Al Fath Dist.,26.57085539650005,50.0437033845001
10500067008,67,حي الواحة,Al Wahah Dist.,26.57605591650005,50.0268475365001
10500067009,67,حي المروج,Al Muruj Dist.,26.586701982500102,50.047842629000044
10500067010,67,حي الصناعية,As Sinaiyah Dist.,26.5854741795001,50.03748891750005
10500067011,67,حي الروضة,Ar Rawdah Dist.,26.57728653550005,50.0415248915001
10500067012,67,حي الورود,Al Wurud Dist.,26.5828895540001,50.027317962
10500067013,67,حي الرضا,Ar Rida Dist.,26.56413818700005,50.0300670045001
10500067014,67,حي الجارودية,Al Jarudiyah Dist.,26.54219312750005,49.9871973375001
10500067015,67,حي حلة محيش,Halat Mahish Dist.,26.5386456620002,49.99742604600015
10500067016,67,حي الياقوت,Al Yaqut Dist.,26.53581997550015,49.97648771800015
10500067017,67,حي البديعة,Al Badiah Dist.,26.53495416750005,49.9707899270001
10500067018,67,حي الدبابية,Ad Dababiyyah Dist.,26.551744636500203,50.00189588400015
10500067019,67,حي الخامسة,Al Khamisah Dist.,26.555960601499997,50.017437560500156
10500067020,67,حي ام الجزم,Umm Al Jazm Dist.,26.55246164050005,49.99986014400005
10500067021,67,حي بديعة البصري,Badiah Al Basri Dist.,26.55830475100015,50.00842661000005
10500067022,67,حي المشتل,Al Mashtal Dist.,26.56840331650015,49.9744370665001
10500067023,67,حي الزمرد,Az Zomorod Dist.,26.54758638600005,49.9983620060001
10500067024,67,حي الناصرة,An Nasirah Dist.,26.57603490900005,50.0126000335001
10500067025,67,حي البحاري,Al Bahari Dist.,26.5684536570001,49.9930304310001
10500067026,67,حي مياس,Mayyas Dist.,26.5559644330001,50.002870155500204
10500067027,67,حي الجواهر,Al Jawahir Dist.,26.5863362635001,50.00664011800005
10500067028,67,حي الخزامى,Al Khuzama Dist.,26.5657352085001,50.01769956850005
10500067029,67,حي التوبي,At Tawbi Dist.,26.554536394500047,49.9947215845001
10500067030,67,حي الجراري,Al Jarrari Dist.,26.558678161000152,50.00267904300015
10500067031,67,حي الشهباء,Ash Shahba Dist.,26.56079967688735,49.98216911500005
10500067032,67,حي القديح,Al Qadih Dist.,26.56988412000015,49.98594911100015
10500067033,67,حي المدارس,Al Madaris Dist.,26.5566719305001,49.99989352100005
10500067034,67,حي الشماسيه,Ash Shamasiyyah Dist.,26.562190484000148,50.005201281
10500067035,67,حي باب الساب,Bab As Sab Dist.,26.56507959150015,50.0010381755001
10500067036,67,حي الجميمة,Al Jamiymah Dist.,26.58490919250005,49.97703259400005
10500067037,67,حي المسعودية,Al Masudiyah Dist.,26.546264772500052,50.00472794250015
10500067038,67,حي الخويلدية,Al Khuwaildiyah Dist.,26.550621242273003,49.98961829865215
10500067039,67,حي العوامية,Al Awamiyah Dist.,26.58778547500005,49.9830084310002
10500067040,67,حي الدويج,Ad Doij Dist.,26.5547313570001,50.000038776500105
10500067041,67,حي الرابعة,Ar Rabiah Dist.,26.56114238650005,50.0113873440001
10500067042,67,حي البستان,Al Bustan Dist.,26.562426307000102,50.00244252250005
10500067043,67,حي الجزيرة,Al Jazirah Dist.,26.55286098350005,50.0131365135001
10500067044,67,حي الشريعة,Ash Shariah Dist.,26.556839744500152,50.0055253270001
10500067045,67,حي الوسادة,Al Wasadah Dist.,26.56372513350015,49.9988802995001
10500067046,67,حي القلعة,Al Qalah Dist.,26.560278007500152,50.0069459560001
10500067047,67,حي البوادي,Al Bawadi Dist.,26.5852614825001,49.9685392835001
10500067048,67,حي الحسين,Al Husain Dist.,26.57499629400005,49.99786574000015
10500067049,67,حي المدني,Al Madani Dist.,26.5596204920001,49.9998988225001
10500067050,67,حي الثريا,Ath Thuraiya Dist.,26.60164618300015,49.983497303
10500067051,67,حي الريف,Ar Rif Dist.,26.599364403000152,49.97554173150015
10500067052,67,حي باب الشمال,Bab Madinah Ash Shamal Dist.,26.56019342850015,50.00271765900005
10500067053,67,حي البحر,Al Bahr Dist.,26.5657535775001,50.00782207600005
10500067054,67,حي الشويكة,Ash Shweikah Dist.,26.54871579100005,50.00853954550015
10500067055,67,حي الوديعه,Al Wadiah Dist.,26.5531184720001,50.009990030000196
10500067056,67,حي الكويكب,Kuwaikib Dist.,26.5527732205002,50.006706206500056
10500067057,67,حي النرجس,An Narjis Dist.,26.59043175300005,49.9891155115001
10500067058,67,حي الزهراء,Az Zahra Dist.,26.605658502500148,50.01301958950005
10500067059,67,حي الزارة,Az Zarah Dist.,26.58423877750005,49.9935165965001
10700074001,74,حي الصفا,As Safa Dist.,27.61977769150005,38.5177246
10700074002,74,حي الروضة,Ar Rawdah Dist.,27.623482793500102,38.5387522320001
10700074003,74,حي المنتزه,Al Muntazah Dist.,27.61570361500015,38.533037418999996
10700074004,74,حي الربوة,Ar Rabwah Dist.,27.62370158150005,38.528238962000145
10700074005,74,حي التجاري,At Tijari  Dist.,27.6310228585001,38.53492488000005
10700074006,74,حي هداج,Haddaj Dist.,27.62691583800015,38.5593242785001
10700074007,74,حي القاع,Al Qaa Dist.,27.63863439800005,38.550402992500096
10400080001,80,حي حطين,Hiteen Dist.,26.0417186315001,44.03674175950015
10400080002,80,حي سنام,Snam Dist.,26.034619812500203,44.01866759600015
10400080003,80,حي الروضة,Ar Rawdah Dist.,26.03215935850005,43.99786831100015
10400080004,80,حي الدوحة,Ad Dawhah Dist.,26.0396068840001,43.977483771500104
10400080005,80,حي الحاجب,Al Hajeb Dist.,26.037255470000147,43.9593509050001
10400080006,80,حي الرمال,Ar Rimal Dist.,26.05526096850015,43.942931060000106
10400080007,80,حي الحفيرة,Al Hufayrah Dist.,26.0750115300001,43.922201153500154
10400080008,80,حي الصفا,As Safa Dist.,26.087154890500152,44.0663113790001
10400080009,80,حي الملك خالد,King Khalid Dist.,26.08696574900005,44.039844108000096
10400080010,80,حي الملك فهد,King Fahd Dist.,26.105667990500052,44.0391200465001
10400080011,80,حي الرياضى,Ar Riyadi Dist.,26.0952861800002,44.057305738500105
10400080012,80,حي القيروان,Al Qirawan Dist.,26.0655328540001,44.0499430655001
10400080013,80,حي غرناطة,Ghirnatah Dist.,26.06119577500015,44.0334726415002
10400080014,80,حي قرطبة,Qurtubah Dist.,26.0580404115002,44.01796795450015
10400080015,80,حي العقيق,Al Aqiq Dist.,26.0561840310001,44.00637843150015
10400080016,80,حي الشفاء,Ash Shifa Dist.,26.07974010250015,43.9999765050001
10400080017,80,حي المطار,Al Matar Dist.,26.08719144950015,43.99521904200015
10400080018,80,حي السليمانية,As Sulimaniyah Dist.,26.08673073600005,44.00800544600005
10400080019,80,حي الوسطى,Al Wusta Dist.,26.07831306600005,44.0124324910002
10400080020,80,المنطقة الصناعية الثانية,2nd Industrial Area,26.0785935410001,44.022298652500055
10400080021,80,المنطقة الصناعية الاولى,1st Industrial Area,26.08787717400005,44.02065370150015
10400080022,80,حي الخليج,Al Khalij Dist.,26.0880221735001,44.0268679735001
10400080023,80,حي المستودعات,Warehouse Dist.,26.078997568000048,44.0301395125002
10400080024,80,حي الهداء,Al Hadaa Dist.,26.095870664000103,43.99155285100005
10400080025,80,حي الصالحية,As Salhiyah Dist.,26.1019166420001,43.990864374000054
10400080026,80,حي المنتزة,Al Muntazah Dist.,26.1123618200001,43.991019147500154
10400080027,80,حي اليرموك,Al Yarmuk Dist.,26.114064195000047,43.97657867400005
10400080028,80,حي النسيم,Al Naseem Dist.,26.11650494450005,43.96729080750015
10400080029,80,حي الرحمانية,Ar Rahmaniyah Dist.,26.126792755500148,43.94854084250015
10400080030,80,حي دمشية,Damshiah Dist.,26.12379434750015,43.92375554350005
10400080031,80,حي المحمدية,Al Muhammadiyah Dist.,26.10324482400005,43.93317280300015
10400080032,80,حي العبسة,Al Absiah Dist.,26.1402858250001,43.9240360220001
10400080033,80,حي بدر,Badr Dist.,26.1258080960001,43.892668711000155
10400080034,80,حي الوهلان,Al Wahlan Dist.,26.1037319800001,43.910529756000145
10400080035,80,حي مليحة,Mlihah Dist.,26.0967957525001,43.95022278250015
10400080036,80,حي مربيدة,Marbidah Dist.,26.0943565815001,43.968338211000045
10400080037,80,حي العليا,Al Olaya Dist.,26.1061322505001,43.962069472000096
10400080038,80,وسط المدينة,City Center,26.0968836165233,43.97592879650015
10400080039,80,حي الريان,Ar Rayan Dist.,26.0809310940002,43.9835002645001
10400080040,80,حي الفاخرية,Al Fakhriyah Dist.,26.07014229950005,43.984537354000096
10400080041,80,حي النقيلية,An Nuqailiah Dist.,26.058078565000102,43.9754618745001
10400080042,80,حي السحيمية,As Suhaymiyyah Dist.,26.07168391000005,43.96690347000015
10400080043,80,حي البديعة,Al Badiah Dist.,26.08081604400015,43.967722164500046
10400080044,80,حي السلام,As Salam Dist.,26.0806960190001,43.9499071820001
10400080045,80,حي اشبيلية,Ishbiliyah Dist.,26.075881477000152,43.938943569000145
10400080046,80,حي العونية,Al Awniyah Dist.,26.08502084950015,43.9321360220001
10400080047,80,حي الحمراء,Al Hamra Dist.,26.02575398400015,43.974817246500095
10400080048,80,حي الفيحاء,Al Fayha Dist.,26.051810441500102,43.9948822065001
10400080049,80,حي الذهبي,Ad Dahbi Dist.,26.05559837,43.98320985900005
10400080050,80,حي الجامعي,Al Jamie Dist.,26.11232468050015,44.06844387150015
10400080051,80,حي المروج,Al Muruj Dist.,26.128913422500148,44.01273363600005
10400080052,80,حي اليمامة,Al Yamamah Dist.,26.11162833300005,44.01512420600015
10400080053,80,حي القادسية,Al Qadisiyah Dist.,26.11196759600015,44.0050272795001
10400080054,80,حي المنار,Al Manar Dist.,26.099136624499998,44.0195439605001
10400080055,80,حي الاشرفية,Al Ashrafiyah Dist.,26.09924801600015,44.00450484500015
10400080056,80,حي الخزامى,Al Khuzama Dist.,26.13095320150005,43.99354647950005
10400080057,80,حي الروغاني,Ar Rawghani Dist.,26.14108649050005,43.973545811500145
10400080058,80,حي الزهراء,Az Zahra Dist.,26.16358298600005,44.02055301300005
10400080059,80,حي الصفراء,As Safraa Dist.,26.19483201250025,44.060666955666846
10400080060,80,حي المباركية,Al Mubarkiah Dist.,26.16935710650005,43.8980126675001
10400080061,80,حي المدوية,Al Mudwiah Dist.,26.158943656000098,43.862466762000096
10400080062,80,حي اليرموك,Al Yarmuk Dist.,26.1789330265002,44.1041420990002
10400080063,80,حي النظيم,An Nadheem Dist.,26.12289401900005,44.09767079700005
10400080064,80,حي التحلية,At Tahliyah Dist.,26.0655100305001,44.066050310500046
10400080065,80,حي الجزيرة,Al Jazirah Dist.,26.0520437135001,44.05614723650005
10400080066,80,حي البستان,Al Bustan Dist.,26.070003754000098,44.0305640165001
10400080067,80,حي الوفاء,Al Wafa Dist.,26.06868440550015,44.0165284070002
10400080068,80,حي الزاهر,Az Zahir Dist.,26.0689224415001,44.001411720500144
10400080069,80,حي الواحة,Al Wahah Dist.,26.061618485500198,44.093837534000144
10400080070,80,حي سوق الماشية,Suq Al Mashiya Dist.,26.0108945765001,43.94750995950005
10400080071,80,حي الجلده,Al Jaldah Dist.,26.008090090500048,43.9963502800001
10400080072,80,حي الندى,An Nada Dist.,26.0305797185001,43.91776461250015
10400080073,80,حي ربوة الحاجب,Rabwat Al Hajeb Dist.,26.01758915950005,43.940819136500096
10400080074,80,حي الغضا,Al Kada Dist.,26.04128291700005,43.8776409615001
10400080075,80,حي الشعيب,Ash Shuaib Dist.,26.1255854515001,43.8686663780001
10400080076,80,حي البويطن,Al Buaiten Dist.,26.1640863800001,43.99718520850015
10400080077,80,حي النرجس,An Narjis Dist.,26.149481968000103,43.996576382500095
10400080078,80,حي عكاظ,Uqaz Dist.,26.19484435081405,44.018686316052
10400080079,80,حي النفود,An Nofoad Dist.,26.179808318868098,43.9190410840001
10400080080,80,حي الوادي,Al Wadi Dist.,26.18410631450035,43.9877881545002
10400080081,80,حي القصور,Al Qusor Dist.,26.0682429020001,43.95068731650015
10400080082,80,حي الحديقة,Al Hadiqah Dist.,26.046851807500097,43.96426031350015
10400080083,80,حي المصيف,Al Masif Dist.,26.1070792625,43.9515414840001
10400080084,80,حي الجوهرة,Al Jawharah Dist.,26.060982049500097,43.9645125780001
10400080085,80,حي الخالدية,Al Khalidiyah Dist.,26.05712378400015,43.99256030650015
10400080086,80,حي الثقافة,Athaqafah Dist.,26.12389046850005,44.04463497250015
10400080087,80,حي المروة,Al Marwah Dist.,26.13956005200005,44.054880957500146
10400080088,80,حي الفخامة,Al Fakamah Dist.,26.147567117500202,44.016345436500046
10400080089,80,حي الفيصلية,Al Faisaliyah Dist.,26.156558801000152,44.05773568700015
10400080090,80,حي الزغيبة,Az Zugaibah Dist.,26.14621531250005,44.110849011000155
10400080091,80,حي الاسكان,Al Iskan Dist.,26.07503455900015,44.0458781450001
10400080092,80,حي الحزم,Al Hazm Dist.,26.01902495300015,44.07316667100015
10500089001,89,حي الرفاع,Ar Rifaa Dist.,27.5597624105001,47.71190045
10500089002,89,حي الربوة,Ar Rabwah Dist.,27.565784961000148,47.70826337250005
10500089003,89,حي الواحة,Al Wahah Dist.,27.55601153450005,47.7098494305001
10500089004,89,حي غرناطة,Ghirnatah Dist.,27.559296903000103,47.70642268650015
10500089005,89,حي الزهور,Az Zuhur Dist.,27.562531937000102,47.70343116250005
